CountryCode ,Name,Latitude,Longitude
AE,Skydive Dubai Airport,25.090037,55.132345
AE,Yasat Higher Airport,24.221075,52.006719
AE,Al Qaffay Airport,24.59017,51.72703
AE,Camp Falaj Hazzaa Airfield,24.189055,55.715891
AE,Yas Island Airport,24.2840004,52.58039856
AE,Abu Dhabi Northeast Airport,24.51889992,54.98009872
AE,Abu Dhabi International Airport,24.443764,54.651718
AE,Buhasa Airport,23.59970093,53.37939835
AE,Al Bateen Executive Airport,24.428301,54.458099
AE,Futaysi Airport,24.378889,54.316111
AE,KIZAD Airport,24.726505,54.832259
AE,Al Hamra Aux Airport,24.0739994,52.46360016
AE,Jebel Dhana Airport,24.18740082,52.61399841
AE,Al Ain International Airport,24.26169968,55.60919952
AE,Al Dhafra Air Base,24.24819946,54.54769897
AE,Qarnayn Airport,24.93059921,52.85509872
AE,Arzanah Airport,24.78050041,52.55989838
AE,Das Island Airport,25.14620018,52.87369919
AE,Zirku Airport,24.86249161,53.07714081
AE,Sir Bani Yas Airport,24.283611,52.580278
AE,Dubai International Airport,25.25279999,55.36439896
AE,Al Minhad Air Base,25.02680016,55.36619949
AE,Al Maktoum International Airport,24.896356,55.161389
AE,Fujairah International Airport,25.11219978,56.32400131
AE,Ras Al Khaimah International Airport,25.6135006,55.93880081
AE,Al Saqr Field,25.7527771,55.95944595
AE,Sharjah International Airport,25.32859993,55.51720047
AE,Umm Al Quwain,25.57722282,55.6511116
AE,Delma Airport,24.51,52.3352
AF,Ajrestan Airport,33.48529816,67.14409637
AF,Dehdadi Airport,36.646099,67.032303
AF,Charikar Airport,35.142523,69.304742
AF,Khost International Airport (U.C.),33.284605,69.80734
AF,Mohammad Agha Wuluswali Airport,34.169062,69.037372
AF,Samangan Airstrip,36.282828,68.020254
AF,Helmand Airport,30.303216,61.868904
AF,Khwaja Ghar North Airport,37.071098,69.495003
AF,Khwaja Ghar South Airport,37.061623,69.487765
AF,Kutub Khel Airport,34.192902,69.135696
AF,Nayak Airport,34.687099,66.893204
AF,Orūzgān Airport,32.90299988,66.63089752
AF,Salerno Airport,33.3638,69.9561
AF,Shebartu Landing Zone Airport,34.778601,67.489557
AF,Tapa Airport,32.745098,62.598701
AF,Dwyer Airport,31.091265,64.066053
AF,Ghazni Airport,33.487853,68.525243
AF,Shank Air Base,33.922217,69.07794
AF,Andkhoy Airport,36.943322,65.206967
AF,Bamyan Airport,34.808916,67.816629
AF,Bost Airport,31.5597,64.364998
AF,Chaghcharan Airport,34.526465,65.27102
AF,Sardeh Band Airport,33.3207016,68.6364975
AF,Darwaz Airport,38.461708,70.881608
AF,Ishkashim Airport,36.710868,71.615182
AF,Farah Airport,32.366667,62.165347
AF,Fayzabad Airport,37.122148,70.5201
AF,Gardez Airport,33.6315,69.239403
AF,Khwahan Airport,37.890021,70.20383
AF,Herat International Airport,34.209999,62.228298
AF,Bagram Airfield,34.946098,69.264999
AF,Joghari Airport,33.1585,67.547333
AF,Jalalabad Airport,34.399799,70.498596
AF,Hamid Karzai International Airport,34.565899,69.212303
AF,Khoja-i-Ghar Airport,37.083,69.366997
AF,Ahmad Shah Baba International Airport / Kandahar Airfield,31.5058,65.847801
AF,Khost Airport,33.333401,69.952003
AF,Logar Airport,33.98649979,69.02310181
AF,Lal (Sarjangal) Airport,34.506716,66.298068
AF,Muqur Airport,32.879601,67.848602
AF,Maymana Zahiraddin Faryabi Airport,35.930801,64.760902
AF,Mazar-i-Sharif International Airport,36.706902,67.209702
AF,Nili Airport,33.739456,66.157408
AF,Urgun Airport,32.939933,69.150064
AF,Panjab Airport,34.391726,67.020445
AF,Kron Monajn Airport,36.16699982,70.71700287
AF,Qala-i-Naw Airport,34.985472,63.117404
AF,Rostaq Airport,37.10681,69.848892
AF,Razer Airport,36.017173,70.760686
AF,Sharana Airstrip,33.12575,68.838517
AF,Shindand Air Base,33.3913,62.261002
AF,Sheberghan Airport,36.750801,65.9132
AF,Sheghnan Airport,37.497642,71.508484
AF,Tarinkot Airport,32.604198,65.865799
AF,Taleqan Airport,36.770699,69.531998
AF,Taywarah Airport,33.54309,64.42542
AF,Kunduz Airport,36.6651,68.910797
AF,Yakawlang (Yakolang) Airport,34.513302,66.303101
AF,Yangi Qaleh Airport,37.459,69.646599
AF,Yawan Airport,37.563636,70.444496
AF,Camp Shorabak Airfield,31.848735,64.223175
AF,Zaranj Airport,30.972222,61.865833
AG,V.C. Bird International Airport,17.1367,-61.792702
AG,Codrington Airport,17.635799,-61.828602
AG,Coco Point Lodge Airstrip,17.555599,-61.765301
AI,Clayton J Lloyd International Airport,18.2048,-63.055099
AL,Korçë Northwest Airport,40.651741,20.741715
AL,Kukës International Airport,42.035802,20.415955
AL,Kuçovë Air Base,40.77190018,19.90189934
AL,Sarandë Airfield,39.876113,20.037663
AL,Tirana International Airport Mother Teresa,41.41469955,19.72060013
AM,Syunik Airport,39.202272,46.455204
AM,Goris Airport,39.450989,46.34724
AM,Hoktember Highway Strip,40.08097748,43.88226986
AM,Berd Airport,40.92540561,45.46140432
AM,Sisian Airstrip,39.54694,46.05694
AM,Sky Club Airstrip,40.07953,44.60577
AM,Arzni Airport,40.294102,44.564602
AM,Stepanavan Airport,41.04850006,44.33720016
AM,Shirak International Airport,40.750401,43.859299
AM,Erebuni Airport,40.12210083,44.46500015
AM,Zvartnots International Airport,40.14730072,44.39590073
AO,Saurimo North Airport,-9.433429718,20.3118
AO,Nancova Airport,-16.39637,18.978764
AO,Rito Airport,-16.689392,19.083767
AO,Coemba Airport,-12.143704,18.085363
AO,Andulo Airport,-11.4723,16.710899
AO,Caluquembe Airport,-13.775546,14.694916
AO,Cuvelai Airport,-15.668575,15.805654
AO,Cuangar Airport,-17.597122,18.63437
AO,Mucusso Airport,-18.020826,21.437053
AO,Jamba Airport,-17.454765,22.607245
AO,Mavinga Airport,-15.789222,20.368971
AO,Ninda Airport,-14.80893,21.376961
AO,Lucusse Airport,-12.521974,20.805726
AO,Cassamba Airport,-13.139351,20.300824
AO,Calunda Airport,-12.126335,23.478615
AO,Lóvua Airport,-11.556065,23.553667
AO,Luacano Airport,-11.209962,21.648705
AO,Lumeje Airport,-11.564598,20.785903
AO,Chipato Airport,-10.701382,22.160291
AO,Camacupa Airport,-12.021878,17.453693
AO,Luando Airport,-11.62444,18.46969
AO,Quirima Airport,-10.902645,18.060368
AO,Dala Airport,-11.040653,20.208268
AO,Longa Airport,-14.610741,18.487945
AO,Cuchi Airport,-14.64987,16.885391
AO,Mutumbo Airport,-13.179982,17.394938
AO,Miguel Airport,-15.704318,17.452439
AO,Calai Airport,-17.878868,19.782762
AO,Chitado Airport,-17.320733,13.923845
AO,Alto Dondo Airport,-9.675516,14.464999
AO,Mussende Airport,-10.520306,15.99677
AO,Capenda Camulemba Airport,-9.415833,18.434794
AO,Xassengue Airport,-10.461305,18.535527
AO,Balombo Airport,-12.357134,14.77923
AO,Cuima Airport,-13.458467,15.833762
AO,Cubati Airport,-15.333917,16.851872
AO,Capelongo Airport,-14.457297,16.296202
AO,Chitembo Airport,-13.509385,16.74928
AO,Cuito Cuanavale South Airport,-15.711983,18.651003
AO,Mussuma Airport,-14.204202,21.909971
AO,Mumbué Airport,-13.900039,17.300036
AO,Cubango River Airport,-13.333366,16.414531
AO,Chinhama Airport,-13.105437,16.42432
AO,Baía dos Tigres Airstrip,-16.6023,11.7222
AO,Tômbua Airport,-15.8004,11.8857
AO,Bentiaba Airfield,-14.25396,12.39103
AO,Lunuango Airstrip,-6.4594,12.5697
AO,Kwanda Airport,-6.1244,12.328
AO,Cangamba Airport,-13.7106,19.861099
AO,Dirico Airport,-17.98192406,20.76806068
AO,Lumbala Airport,-12.63987732,22.5868206
AO,Jamba Airport,-14.6981926,16.07014847
AO,Capanda Airport,-9.769370079,15.4553194
AO,N'dalatando Airport,-9.280378,14.982432
AO,Cahama Airport,-16.23839951,14.32600021
AO,Matala Airport,-14.72749996,15.01399994
AO,Cabo Ledo Air Base,-9.65305,13.2606
AO,Ambriz Airport,-7.86221981,13.11610031
AO,Mbanza Congo Airport,-6.269899845,14.24699974
AO,Benguela 17th of September Airport,-12.609,13.4037
AO,Lumbala Airport,-14.105106,21.45083
AO,Cabinda Airport,-5.596990108,12.18840027
AO,Camembe Airport,-8.133000374,14.5
AO,Cacolo Airport,-10.110278,19.287304
AO,Cafunfo Airport,-8.783610344,17.98970032
AO,Chitato Airport,-7.358890057,20.80470085
AO,Camabatela Airport,-8.217000008,15.36699963
AO,Catumbela Airport,-12.4792,13.4869
AO,Cuito Cuanavale Airport,-15.16030025,19.15609932
AO,Camaxilo Airport,-8.373609543,18.92359924
AO,Cazombo Airport,-11.89309978,22.91640091
AO,Damba Airport,-6.900000095,15.13300037
AO,Dundo Airport,-7.400889874,20.81850052
AO,Ngjiva Pereira Airport,-17.0435009,15.68379974
AO,Nova Lisboa Airport,-12.80889988,15.76049995
AO,Kuito Airport,-12.40460014,16.94739914
AO,Lobito Airport,-12.37119961,13.53660011
AO,Lucapa Airport,-8.445727348,20.73208618
AO,Quatro de Fevereiro Airport,-8.85837,13.2312
AO,Luzamba Airport,-9.115960121,18.04929924
AO,Malanje Airport,-9.525090218,16.31240082
AO,Menongue Airport,-14.6576004,17.71980095
AO,Welwitschia Mirabilis International Airport,-15.2612,12.1468
AO,Maquela do Zombo Airport,-6.030280113,15.13689995
AO,Negage Airport,-7.754509926,15.2876997
AO,Porto Amboim Airport,-10.72200012,13.76550007
AO,Sanza Pombo Airport,-7.300000191,15.93299961
AO,Saurimo Airport,-9.689069748,20.43190002
AO,Soyo Airport,-6.141089916,12.37180042
AO,Sumbe Airport,-11.16790009,13.84749985
AO,Toto Airport,-7.146389961,14.24860001
AO,Luau Airport,-10.71580029,22.23110008
AO,Lubango Airport,-14.92469978,13.57499981
AO,Luena Airport,-11.76809978,19.89769936
AO,Uige Airport,-7.603069782,15.02779961
AO,Waco Kungo Airport,-11.42640018,15.10140038
AO,Xangongo Airport,-16.7553997,14.96529961
AO,N'zeto Airport,-7.259439945,12.86310005
AO,Nzagi Airport,-7.716939926,21.35820007
AQ,Rothera Point Airport,-67.56694116,-68.12699318
AQ,Novolazarevskaya Station,-70.8461,11.8472
AQ,Troll Airfield,-71.95714,2.45257
AQ,Jack F. Paulus Skiway,-89.989444,-1
AQ,Enigma Lake Skiway,-74.71637,164.03408
AQ,Boulder Clay Runway,-74.739373,164.03539
AQ,Concordia Skyway,-75.103278,123.35825
AQ,Zucchelli Ice Runway,-74.68109,164.12756
AQ,Showa Station Skiway,-69.006167,39.59
AQ,Vostok Skiway,-78.466139,106.84825
AQ,Halley Research Station,-75.567406,-25.516435
AQ,Rothera Research Station,-67.5675,-68.127403
AQ,Sky Blu Airstrip,-74.849722,-71.566666
AQ,Palmer Station Airport,-64.774582,-64.035907
AQ,Phoenix Airfield,-77.956389,166.766667
AQ,McMurdo Station Ice Runway,-77.854391,166.464387
AQ,McMurdo Station Pegasus Field,-77.96340179,166.5249939
AQ,South Pole Station Airport,-90,0
AQ,Williams Field,-77.86740112,167.0570068
AQ,Petrel Airport,-63.479,-56.2313
AQ,Gustavo Marambio Airport,-64.238297,-56.630798
AQ,Matienzo Airfield,-64.976998,-60.108992
AQ,Base Belgrano II Airport,-77.874055,-34.62616
AQ,Esperanza Base,-63.40000153,-56.98329926
AQ,Jubany Airbase,-62.2383,-58.666599
AQ,Orcadas Base,-60.74029922,-44.74250031
AQ,San Martín Base Airfield,-68.116699,-67.099998
AQ,General Bernardo O'Higgins Base Skyway,-63.344,-57.842
AQ,Union Glacier Blue-Ice Runway,-79.777778,-83.320833
AQ,Patriot Hills Airport,-80.3142,-81.39478
AQ,Teniente Rodolfo Marsh Martin Base,-62.1908,-58.986698
AQ,Wilkins Runway,-66.690833,111.523611
AR,Cullen Airport,-52.88510132,-68.41220093
AR,Los Cerros Airport,-54.34410095,-67.832901
AR,Rio Bellavista Airport,-53.98270035,-68.52359772
AR,Merlo Airport,-32.35820007,-65.01740265
AR,Bragado Airport,-35.144,-60.4803
AR,Los Rulos Airport,-28.933839,-62.792315
AR,Caleta Olivia Airport,-46.43180084,-67.51860046
AR,Aeroclub Chaco Airport,-27.6311,-59.1797
AR,Charata Airport,-27.2164,-61.2103
AR,General Villegas Airport,-35,-63
AR,Los Menucos Airport,-40.817699,-68.074699
AR,Aerofumigaciones Don Alejandro Airport,-33.306157,-60.656387
AR,Agro Servicio Yoris Airport,-26.583055,-64.529724
AR,Agroaire Airport,-27.4978,-61.6586
AR,Valcheta Airport,-40.70000076,-66.15000153
AR,Villa Mercedes Airport,-33.640858,-65.420074
AR,13 De Diciembre Airport,-45.9033,-67.5564
AR,Acindar Airport,-33.2647,-60.2842
AR,Aeroboero Airport,-30.7286,-62.0078
AR,Bahia Blanca Aeroclub Airport,-38.6722,-62.3522
AR,Balcarce Aeroclub Airport,-37.9156,-58.3442
AR,Cipoletti Aeroclub Airport,-38.89310074,-67.98860168
AR,Olavarria Aeroclub Airport,-36.96440125,-60.2757988
AR,Rauch Airport,-36.7717,-59.0575
AR,Tandil Aeroclub Airport,-37.2655983,-59.09329987
AR,Aerotec Airport,-33.20694351,-68.49222565
AR,Alagro Fumigaciones Airport,-32.8878,-60.8436
AR,San Andres De Giles Airport,-34.4703,-59.4247
AR,Alejandro Roca Airport,-33.34889984,-63.72999954
AR,Alfredo Sanchez Airport,-34.8011,-61.865
AR,Algarrobo/La Reforma Airport,-38.7306,-63.2869
AR,Allen Airport,-38.95809937,-67.8035965
AR,Alta Gracia Airport,-31.65139961,-64.39389801
AR,Alumine Airport,-38.95029831,-71.04920197
AR,Alvear Aeroparque Airport,-33.0467,-60.5969
AR,Alvear Airport,-29.064722,-56.541111
AR,Ameghino Airport,-34.8458,-62.4817
AR,America Airport,-35.5017,-62.99
AR,Añatuya Airport,-28.47970009,-62.84579849
AR,Andacollo Airport,-37.20333481,-70.6966629
AR,Anibal Brizi Airport,-31.4042,-60.8992
AR,Arrecifes Aeroclub Airport,-34.0833,-60.0333
AR,Arribeños Airport,-34.2228,-61.3858
AR,Arroyito/Arcor Airport,-31.42219925,-63.00419998
AR,Presidente Avellaneda Airport,-29.1061,-59.6569
AR,Ayacucho Airport,-37.1639,-58.4719
AR,B&B Servicios Agropecuarios Airport,-32.1147,-61.6328
AR,Baradero Airport,-33.8217,-59.4925
AR,Barrancas Airport,-36.77560043,-69.85939789
AR,Basavilbaso Airport,-32.3611,-58.8808
AR,Batan Airport,-38.0117,-57.6775
AR,Belén De Escobar Airport,-34.2986,-58.7989
AR,Bellamar Airport,-38.3858,-58.1336
AR,Blondi Airport,-34.61333466,-61.02305603
AR,Gran Ancona Airport,-33.4383,-61.3017
AR,Bonetti Airport,-27.60416603,-55.86388779
AR,Pablo Sierra Aeroaplicaciones Airport,-30.9294,-62.0506
AR,Cabañas Airport,-32.9775,-58.5222
AR,Cabildo Airport,-38.49860001,-61.88439941
AR,Caleufu Airport,-40.39390182,-70.96330261
AR,Canals Airport,-33.5622,-62.8692
AR,Cañada De Gomez Airport,-32.8086,-61.365
AR,Cañada Rosquin Airport,-32.0994,-61.5839
AR,Cañuelas Airport,-35.1119,-58.7261
AR,Capitan Sarmiento Airport,-34.1639,-59.7311
AR,Vedia Aeroclub,-34.4817,-61.4903
AR,Carhue Airport,-37.1942,-62.7814
AR,Carlos Casares Airport,-35.6328,-61.3842
AR,Las Ensenadas Airport,-31.45529938,-64.52639771
AR,Carlos Tejedor Airport,-35.4256,-62.4697
AR,Carmen De Areco Airport,-34.4175,-59.8719
AR,Casilda Airport,-33.0617,-61.21
AR,Castelli Airport,-36.11000061,-57.86194611
AR,Castelli Airport,-25.93083382,-60.62805557
AR,Cereales Anahi Ruca Airport,-35.67361069,-63.71805573
AR,Chacabuco Airport,-34.6069,-60.4097
AR,Chacharramendi Airport,-37.34059906,-65.646698
AR,Chajari Airport,-30.7542,-58
AR,Chañar Ladeado Airport,-33.3333,-62.0333
AR,Chascomus Airport,-35.5428,-58.0519
AR,Chivilcoy Airport,-34.9639,-60.0333
AR,Cholila Airport,-42.484722,-71.460556
AR,Cinco Saltos Airport,-38.801666,-68.037224
AR,Colon Airport,-33.9231,-61.0461
AR,Colon Airport,-32.2614,-58.1556
AR,Concepcion Del Uruguay Airport,-32.4519,-58.3058
AR,Concordia Aeroclub Airport,-31.3042,-58.0153
AR,Confluencia Airport,-36.77140045,-69.53859711
AR,Coronel Dorrego Airport,-38.7411,-61.2561
AR,Coronel Pringles Airport,-38.00666809,-61.33194351
AR,Coronel Vidal Airport,-37.4689,-57.7669
AR,Corral De Bustos Airport,-33.2811,-62.1514
AR,Santa María Airport,-31.28610039,-64.45529938
AR,Cruz Alta Airport,-33.0078,-61.8369
AR,Curuzu Cuatia Aeroclub Airport,-29.7789,-58.0958
AR,Fumigaciones Airport,-36.5914,-61.7753
AR,Darregueira Airport,-37.71279907,-63.16189957
AR,Dean Funes Airport,-30.37919998,-64.37969971
AR,Diamante Airport,-32.0161,-60.5825
AR,Agrocelta Servicios Aereos Airport,-33.8867,-60.8628
AR,Saavedra Airport,-37.750242,-62.33425
AR,Eduardo Castex Airport,-35.8805542,-64.27388763
AR,El Alamito Airport,-37.27361298,-70.38972473
AR,Establecimiento El Araza Airport,-36.7756,-57.6414
AR,El Corcovado Airport,-43.53359985,-71.48470306
AR,El Gaucho Airport,-32.6294,-61.5444
AR,El Pajaro Airport,-34.8237,-58.3169
AR,El Pampero Airport,-36.59280014,-64.18669891
AR,El Trebol Airport,-32.2153,-61.7161
AR,Elizalde Airport,-34.9747,-57.9614
AR,Esperanza Airport,-31.4736,-60.8447
AR,Esquina Airport,-30.0489,-59.5353
AR,Estancia Don Roberto Airport,-34.00139999,-65.36689758
AR,Estancia La Choza Airport,-30.5389,-58.2928
AR,Estancia La Laurita Airport,-44.7761116,-70.19638824
AR,Estancia Llamuco Airport,-38.79944611,-70.4347229
AR,Estancia Los Cardos Airport,-37.7356,-58.0342
AR,Estancia Nueva Lubecka Airport,-44.44194412,-70.4422226
AR,Estancia San Juan Airport,-29.6028,-58.0281
AR,Estancia San Ramón Airport,-50.303495,-69.926057
AR,Estindher Airport,-33.0931015,-64.42919922
AR,Ezpeleta Airport,-34.7464,-58.2033
AR,Firmat Aeroclub Airport,-33.4289,-61.5108
AR,Formosa Aeroclub Airport,-26.3014,-58.2983
AR,Fortín De Gainza Airport,-34.5494,-63.1225
AR,Fumigaciones Stadler Airport,-32.5786,-60.9119
AR,Galvez Airport,-32.0322,-61.1758
AR,General Alvear Aeroclub Airport,-34.97309875,-67.72360229
AR,General Belgrano Airport,-35.7519,-58.4633
AR,General Deheza Airport,-32.74530029,-63.79579926
AR,General La Madrid Airport,-37.22719955,-61.27920151
AR,General Las Heras,-34.9206,-58.9164
AR,General Levalle Airport,-34.00388718,-63.93083191
AR,General Madariaga Airport,-37.0392,-57.1372
AR,General Pìnedo Airport,-27.3394,-61.2744
AR,General Pinto Airport,-34.7861,-61.9142
AR,Los Toldos Airport,-34.9744,-61.0206
AR,Gobernador Crespo Aeroclub Airport,-30.3878,-60.3656
AR,Gobernador Santillán Airport,-27.90139961,-64.24970245
AR,Gomez Airport,-35.0956,-58.0853
AR,Gonzalez Chaves Airport,-38.02939987,-60.13610077
AR,Goya Aeroclub,-29.1678,-59.2464
AR,Guadalupe Airport,-31.584,-60.668
AR,Gualeguay Airport,-33.10361099,-59.37472153
AR,Agro Aereo Gualeguay Airport,-33.0386,-59.4383
AR,Henderson Airport,-36.31470108,-61.74779892
AR,Huanguelen Airport,-37.03305435,-61.93416595
AR,Huinca Renanco Airport,-34.82030106,-64.37310028
AR,Ingeniero Luiggi Airport,-35.35499954,-64.47583008
AR,Agroservicio Doña Teresa Airport,-28.8494,-62.2625
AR,Establecimiento La Susana,-34.909168,-59.348888
AR,Intendente Alvear Airport,-35.2592,-63.5328
AR,Intendente Alvear,-35.2494,-63.5342
AR,Fumigaciones Herbinsec Airport,-35.138611,-62.705278
AR,Don Hector Biondi Airport,-33.2464,-62.4167
AR,Italaviation Airport,-29.1608,-59.1814
AR,Jacinto Arauz Airport,-38.06610107,-63.42829895
AR,Jardin De América Airport,-27.03249931,-55.19805527
AR,Jesús Maria Airport,-30.98810005,-64.07689667
AR,Agropecuaria Rio Juramento Airport,-25.18670082,-64.08280182
AR,Tres Lomas Airport,-36.4439,-62.8792
AR,Juan Carlos Bagur Airport,-32.4186,-59.8158
AR,Juarez Celman Airport,-31.21138954,-64.16139221
AR,La Angelita Airport,-30.8522,-58.7067
AR,Trenque Lauquen Airport,-36.0158,-62.6939
AR,La Caida Airport,-34.8625,-58.3447
AR,La Consulta Airport,-33.73083496,-69.17388916
AR,La Laja Airport,-31.35138893,-68.47305298
AR,Quebracho Herrado Airport,-34.1553,-59.8739
AR,La Mezquita Airport,-31.40080071,-64.3003006
AR,La Nueva Airport,-34.9464,-61.3042
AR,La Paz Aeroclub Airport,-30.7442,-59.5683
AR,La Pelada Airport,-30.9556,-60.8858
AR,La Siesta Airport,-33.6939,-62.0625
AR,Laborde Airport,-33.1567,-62.8906
AR,Lago Buenos Aires Airport,-46.57640076,-70.94860077
AR,Lago La Esperanza Airport,-42.217499,-71.805003
AR,Lago Nahuel Huapi Airport,-41.09719849,-71.17780304
AR,Laguna Aeroclub Airport,-34.40888977,-59.45833206
AR,Laguna De Gomez Airport,-34.6539,-61.01
AR,Laprida Airport,-37.51890183,-60.77690125
AR,Las Cortaderas Airport,-38.3547,-58.1089
AR,Las Marias Airport,-28.1,-56.05
AR,Las Ovejas Airport,-36.999699,-70.741897
AR,Las Rosas Airport,-32.4922,-61.5806
AR,Las Varillas Airport,-31.8914,-62.7047
AR,Lanzillota Airport,-32.72140121,-68.63420105
AR,Leones Airport,-32.6368,-62.3148
AR,Luján Airport,-34.5514,-59.0783
AR,Lincoln Airport,-34.8911,-61.5306
AR,El Mirador,-34.538887,-59.585278
AR,Loberia Airport,-38.1906,-58.7864
AR,Nika Airport,-38.1478,-58.7542
AR,Lobos Airport,-35.2108,-59.1367
AR,Los Cardos Airport,-32.2719,-61.6622
AR,Los Perales Airport,-46.19079971,-69.28029633
AR,Los Tucanes Airport,-27.03583336,-65.15666962
AR,Macachin Airport,-37.11109924,-63.54999924
AR,Maipu Airport,-36.8903,-57.8503
AR,Marcos Paz,-34.7975,-58.8969
AR,Martín Fierro Airport,-33.94029999,-64.36969757
AR,Meliquina Airport,-40.33530045,-71.33920288
AR,Mercedes Airport,-34.6397,-59.4556
AR,Azcarate Irastorza Airport,-35.1994,-63.6008
AR,Metán Airport,-25.51440048,-64.96559906
AR,Mina Clavero Airport,-31.73310089,-64.98560333
AR,Monte Maiz Airport,-33.2103,-62.6297
AR,Moromar Airport,-38.4164,-58.3839
AR,Morteros Airport,-30.6778,-62.0267
AR,Navarro Airport,-35.0236,-59.2858
AR,Nogoya Airport,-32.4025,-59.7461
AR,Oliva Airport,-32.06079865,-63.5469017
AR,Haydee Airport,-35.669894,-61.405525
AR,Parana Aeroclub Airport,-31.7578,-60.3733
AR,Parana Club De Planeadores Airport,-31.7314,-60.22
AR,Parque Hermoso Airport,-38.0287,-57.6393
AR,Pedro Luro Airport,-39.4561,-62.6747
AR,Pellegrini Airport,-36.2828,-63.1342
AR,LAD 2198 Juan Jose Angelini,-34.426945,-59.480278
AR,Pilcaniyeu Airport,-41.12666702,-70.71389008
AR,Pinamar Airport,-37.0911,-56.9783
AR,Poblet Airport,-35.0881,-57.9492
AR,Posadas Aeroclub Airport,-27.41749954,-55.93972397
AR,Puán Airport,-37.53939819,-62.73419952
AR,Pueblo Esther Airport,-33.0817,-60.5647
AR,Terminal 6 Airport,-32.6417,-60.7539
AR,Pulmari Airport,-39.10055542,-70.99888611
AR,Punta Alta Airport,-38.8342,-62.0869
AR,La Igualdad Airport,-35.5133,-58.3531
AR,Rawson Airport,-43.2944,-65.0644
AR,Realicó Airport,-35.05920029,-64.21109772
AR,Nueva Valencia Airport,-27.5864,-58.8203
AR,Don Jose Airport,-32.8275,-60.7817
AR,Rio Chico Airport,-51.6686,-69.2603
AR,Rivadavia Airport,-33.22722244,-68.47416687
AR,Rojas Airport,-34.215,-60.6725
AR,Rosario De La Frontera Airport,-25.82805634,-64.96805573
AR,Rosario Del Tala Airport,-32.3289,-59.1906
AR,Rufino Airport,-34.2831,-62.6719
AR,Salliqueló Airport,-36.75640106,-62.94440079
AR,Salto Airport,-34.3069,-60.2858
AR,San Benito Airport,-31.8086,-60.4517
AR,San Cayetano Heliport,-38.33388901,-59.63027954
AR,San Cristobal Airport,-30.2642,-61.2203
AR,San Francisco Airport,-31.4142,-62.1336
AR,San Jorge Airport,-31.8836,-61.8442
AR,San Justo Airport,-30.7642,-60.5653
AR,Aeroclub San Martín,-33.061883,-68.508644
AR,Bahía Agradable Airport,-35.4594,-58.7636
AR,Bahía Dorada Airport,-41.8428,-65.0822
AR,San Vicente Airport,-26.95330048,-54.4878006
AR,Santo Tome Airport,-28.52722168,-56.10944366
AR,Scaro Airport,-24.44805527,-65.17583466
AR,Villa de María de Río Seco Airport,-29.9,-63.683
AR,Stroeder Airport,-40.2106,-62.6175
AR,Suboficial Auxiliar Miguel A. Cardone Airport,-33.9617,-61.6325
AR,Sunchales Aeroclub Airport,-30.9575,-61.5283
AR,Estancia Tecka Airport,-43.61222076,-71.02194214
AR,Tilisarao Airport,-32.75,-65.28220367
AR,Tolosa Airport,-34.8747,-57.9608
AR,Tornquist Airport,-38.09560013,-62.25030136
AR,Tostado Airport,-29.2358,-61.7886
AR,Chevron Texaco Airport,-37.365002,-69.300278
AR,Horco Molle Aeroclub Airport,-26.79610062,-65.30919647
AR,Urdinarrain Airport,-32.6964,-58.8992
AR,Veinticinco De Mayo Airport,-35.4464,-60.0886
AR,Vera Airport,-29.4681,-60.2261
AR,Veronica Airport,-35.4,-57.3667
AR,Victoria Airport,-32.5844,-60.1847
AR,Victorica Airport,-36.23749924,-65.45055389
AR,Villa Del Rosario Airport,-31.579313,-63.539184
AR,Villa General Belgrano Airport,-31.96529961,-64.56439972
AR,Villa Ocampo Airport,-28.4969,-59.3256
AR,Villa Regina Airport,-39.07360077,-67.08000183
AR,Villa Rumipal Airport,-32.18500137,-64.48829651
AR,Zarate Airport,-34.12,-59.0836
AR,Belingueres Aviación Airport,-34.2778,-60.5044
AR,Bocca Airport,-31.8711,-61.9511
AR,Buena Esperanza Airport,-30.5306,-58.3972
AR,Buenos Aires Airport,-33.859722,-59.468887
AR,Burdisso Airport,-32.2406,-61.7583
AR,Carmen De Patagones Airport,-40.7781,-62.9803
AR,Club De Planeadores Airport,-38.0153,-57.6536
AR,Colonia Tirolesa Airport,-31.244722,-64.035278
AR,Comandante Eduardo A. Olivero Airport,-37.3666687,-58.96666718
AR,Concepción Airport,-27.345434,-65.617973
AR,Coronel Brandsen Airport,-35.1828,-58.2839
AR,Coronel Moldes Airport,-33.616669,-64.612503
AR,Di Giuseppe Airport,-32.8908,-61.1239
AR,Dinaluca S.A. Airport,-27.3828,-57.6442
AR,EAA General Rodriguez,-34.6803,-59.0358
AR,El Girasol Airport,-33.6661,-59.8339
AR,El Gringo Airport,-27.3086,-61.2114
AR,El Jagüel Airport,-31.7994,-59.0339
AR,El Malagueño Airport,-31.6994,-59.4006
AR,El Pilincho Airport,-30.3872,-57.9683
AR,El Toto Airport,-31.650278,-64.368889
AR,Establecimiento La Adelita Airport,-31.3925,-61.1431
AR,Establecimiento La Florencia Airport,-33.0769,-61.3178
AR,Estancia Caridad Airport,-43.72139,-71.24556
AR,Estancia La Leonor Airport,-26.1494,-59.6672
AR,Estancia La Providencia Airport,-32.9411,-58.565
AR,Estancia La Salvación Airport,-25.2767,-58.9375
AR,Estancia Lucila Airport,-38.3086,-58.105
AR,Estancia San Vicente Airport,-32.9989,-61.7781
AR,Estancia Santa Romana Airport,-33.753334,-65.246391
AR,Estancia Villa Corina Airport,-28.035,-56.0678
AR,Estancia Villa María,-34.6433,-59.1272
AR,F.A.T. Airport,-34.1767,-61.5069
AR,Finca La Frontera Airport,-22.12351,-63.29055
AR,Firmat Airport,-33.4661,-61.4842
AR,Fumigaciones Campagnucci Airport,-33.3239,-60.6658
AR,Fumigaciones Fredy Airport,-34.2361,-60.5819
AR,Fumigaciones González Airport,-32.3589,-60.9797
AR,General Belgrano Airport,-24.745834,-65.418892
AR,General San Martin (La Pampa) Airport,-37.94972,-63.6175
AR,Ginevro Airport,-31.864445,-62.844166
AR,Gualeguay Aeroclub Airport,-33.0994,-59.4172
AR,Haras La Pomme Airport,-34.2078,-59.3856
AR,Hosteria San Huberto Airport,-39.70388794,-71.16999817
AR,Iriberri Airport,-38.478789,-58.804836
AR,Islas Del Ibicuy Airport,-33.75,-58.7
AR,La Carlota Airport,-33.45000076,-63.34999847
AR,La Chacra Airport,-34.8119,-62.522501
AR,La Esmeralda Airport,-29.9939,-57.8378
AR,La Lucía Airport,-33.0119,-61.0608
AR,La Madrugada Airport,-38.0036,-59.3489
AR,La Mariela Airport,-35.7828,-61.9342
AR,La Zulema Airport,-32.4897,-62.6714
AR,Las Lilas Airport,-35.1328,-62.2175
AR,Malabrigo Airport,-29.35,-59.9667
AR,Montes De Oca Airport,-32.5811,-61.8408
AR,Ñancu Airport,-35.6161,-63.7508
AR,Pedro Ferrari Airport,-32.9278,-62.4336
AR,Petrazzini Airport,-38.3478,-60.2761
AR,Petruk Airport,-27.0878,-58.6694
AR,Pettilep Airport,-33.005,-61.0194
AR,Pettilep II Airport,-32.8039,-60.7989
AR,Puerta De Avalos Airport,-24.314679,-65.247198
AR,Pulverizaciones M.H. Airport,-27.4831,-61.6486
AR,Saldungaray Airport,-38.2163887,-61.7508316
AR,San Cayetano Airport,-38.3339,-59.6303
AR,San Gregorio Airport,-34.3169,-62.0192
AR,San Ignacio Airport,-39.84749985,-70.8638916
AR,San José De La Dormida Airport,-30.27750015,-63.85749817
AR,Santo Tomás de La Sierra Airport,-38.241804,-61.827675
AR,Savesa Airport,-33.7792,-61.9775
AR,Sigfrido Rohr Aviagro S.R.L. Airport,-34.8306,-62.4678
AR,Skare Airport,-34.35718331,-60.15598297
AR,Termal Airport,-26.753611,-60.492222
AR,Timboy Airport,-30.2236,-57.8444
AR,Trevelin Airport,-43.08797,-71.47868
AR,Casilda Fumigaciones Airport,-33.174722,-61.2
AR,Yapeyú Airport,-29.44393,-56.823915
AR,San Patricio Airport,-34.0403,-59.6944
AR,La Cura Malal Airport,-34.0536,-60.1369
AR,La Argentina Airport,-35.996667,-62.705278
AR,La Paz Airport,-33.467,-67.55
AR,Colonia Sarmiento Airport,-45.582371,-68.999841
AR,Agroaire Airport,-27.476346,-61.624434
AR,Aeroclub de El Chaltén Alf. G.N.A. Walter Omar D Anna,-49.328889,-72.93
AR,Hipólito Yrigoyen Lago Posadas Airport,-47.565833,-71.74
AR,Puerto Piramides Airport,-42.550804,-64.269397
AR,Punta Delgada Field,-42.764154,-63.643799
AR,Camerones Field,-44.76667,-65.71667
AR,Caleta Valdés Field,-42.454874,-63.61908
AR,Telsen,-42.383333,-66.95
AR,Gan Gan Field,-42.521363,-68.287861
AR,Gastre Field,-42.276165,-69.221892
AR,Cushamen Field,-42.17195981,-70.666176
AR,Las Plumas Filed,-43.729305,-67.284822
AR,Estancia Cullen South Airport,-52.9435,-68.4021
AR,Sara Airport,-53.432,-68.167
AR,Rio Chico Highway Strip,-53.642,-67.9486
AR,Los Robles Airport,-54.069,-67.6536
AR,Agroalvear S.R.L. Airport,-33.06833,-60.66694
AR,Arias Airport,-33.664,-62.3751
AR,Estancia La Alborada,-37.462706,-58.188557
AR,Finca Cuchuy Airport,-23.04,-63.7211
AR,Calchaqui Airport,-29.85167,-60.29194
AR,Stiefel Airport,-31.99472,-61.60278
AR,Fumagro Airport,-37.214729,-62.780581
AR,Establecimiento La Maria Pilar Airport,-36.488606,-63.432958
AR,Agroservicios Airport,-33.2723,-60.5707
AR,Alfomso Mengo Airport,-32.02444,-64.27944
AR,Lomas del Espinillo Airport,-32.08806,-64.16972
AR,Ita Ibate Airport,-27.44833,-57.422241
AR,Estancia San Rafael Airport,-25.04347,-58.5915
AR,Bernardo's Airport,-32.2506,-61.6519
AR,Salvita Airport,-23.2128,-64.0339
AR,El Desafio,-23.2426,-63.323
AR,Finca La Hercilia Airport,-22.6147,-63.662759
AR,Kalbermatter Airport,-27.26028,-61.47444
AR,El Potrero,-32.97472,-58.25389
AR,Plus Agroservicios Aereos S.R.L. Airport,-33.8136,-61.3357
AR,Biondi Airport],-33.2232,-62.4046
AR,Casajus,-33.3882,-63.3055
AR,Don Emilio Airport,-26.73247,-64.88455
AR,AeroSoluciones Airport,-24.74889,-64.235
AR,Don Alberto Airport,-35.8696,-57.8768
AR,Fumigaciones Ortega Airport,-35.2757,-61.5564
AR,Campo San Jose Airport,-30.77778,-62.01472
AR,Pulverizaciones Aerosur Airport,-38.576401,-58.796429
AR,Finca Toloche Airport,-25.4346,-63.8578
AR,Agro Aéreo La Noria,-33.85696,-60.70038
AR,Servicios Aeronauticos,-37.523004,-62.452319
AR,Estancia La Carolina Airport,-33.07558,-60.715
AR,SAS Aeroaplicaciones Airport,-24.80667,-64.18111
AR,Vale Airport,-37.06556,-69.39556
AR,Aeroagereo,-35.13588,-61.99717
AR,La Amalia,-35.10042,-62.01656
AR,BSG Airport,-34.24968,-62.67416
AR,Abelenda Airport,-35.738533,-59.76201
AR,Vergnano Airport,-30.32012,-61.90165
AR,Aeroclub San Javier,-30.5559,-59.9907
AR,Chialva S. H. Airport,-32.736945,-62.531378
AR,Santa Clara de Saguier Airport,-31.35549,-61.82983
AR,San Alberto Airport,-36.592071,-64.220437
AR,Cóndor del Aire Airport,-33.46587,-60.62854
AR,Fumigaciones Nando Airport,-29.77963,-62.03181
AR,Establecimiento El 21 Airport,-26.8952,-62.30962
AR,Tío Pujio Airport,-32.29307,-63.40197
AR,Santagiulian Airport,-38.40573,-60.29968
AR,Estancia Los Lobles Airport,-36.552913,-63.766652
AR,Estancia La Criolla Airport,-35.537034,-60.129512
AR,Servicios Agroaereos Airport,-35.449205,-60.160708
AR,Don Angel Airport,-33.93823,-64.40774
AR,Beneficios S.R.L. Airport,-33.93759,-64.415095
AR,Comequechen Airport,-33.93402,-64.415946
AR,Santa Isabel Airport,-36.23682,-66.94624
AR,Limay Mahuida Airport,-37.1201,-66.704
AR,Nueva Galia Airport,-35.089382,-65.197724
AR,RAIG S.A. Airport,-32.4382,-63.2893
AR,Suarez Aviación Airport,-32.4272,-63.3024
AR,Villa Valeria Airport,-34.35653,-64.90136
AR,Coy Aike Airport,-51.162246,-69.487675
AR,Estancia Elena Airport,-49.727768,-68.756606
AR,Fortin Cabo Lugones Airport,-24.300451,-59.830954
AR,Posta Cambio A Zalazar Airport,-24.214083,-60.201159
AR,Colonel Alfonso Airport,-25.130442,-58.217977
AR,San Hilario Airport,-25.86448,-58.672887
AR,Santa Elena Airport,-30.976069,-59.776894
AR,Augusto Leguizamon Airport,-34.818011,-62.477107
AR,Dutto Airport,-28.870432,-62.241535
AR,Malfato Airport,-35.1517,-60.5056
AR,Cañada Quiroz Airport,-27.5497,-58.7175
AR,Malatini Airport,-35.569123,-61.368224
AR,Ottaviani Airport,-35.648137,-61.350425
AR,Copetonas Airport,-38.743657,-60.553332
AR,Don Moises Airport,-32.039622,-64.192827
AR,Itati Airport,-27.305297,-58.313924
AR,Las 2 A Airport,-34.811475,-60.51701
AR,Daireaux Airport,-36.5828,-61.7842
AR,Estancia Santa Elisa Airport,-29.304436,-56.881343
AR,Hernando Airport,-32.337145,-63.685178
AR,Antares Airport,-34.528223,-63.960879
AR,Lanteri Airpiort,-28.86085,-59.673331
AR,Agroalas S.R.L. Airport,-26.870159,-64.74663
AR,Horizonte Aplicaciones Areas Airport,-32.521761,-61.550695
AR,Samave Airport,-33.786401,-62.127806
AR,El Recuerdo S.R.L. Airport,-33.10549,-63.192986
AR,Rovere Airport,-26.783029,-60.487414
AR,Estancia La Elba,-44.5728,-65.3706
AR,Fumigaciones Herbinsec Airport,-35.13652,-61.99028
AR,Parajon Airport,-34.576385,-61.005748
AR,Bahía Laura Airport,-48.331097,-66.417847
AR,Fitz Roy Airport,-47.021639,-67.241585
AR,Tres Cerros Airport,-48.138678,-67.655065
AR,Ministro Ramos Mexía Airport,-40.523752,-67.214651
AR,Arroyo de la Ventana Airport,-41.669222,-66.097071
AR,Dique Florentino Ameghino Airport,-43.674928,-66.493948
AR,Arroyo Los Berros Airport,-41.438981,-66.090185
AR,La Caldonia Airport,-32.1306,-61.8935
AR,El Ocho Airstrip,-31.799689,-59.703579
AR,Timbo Airstrip,-31.8266,-59.0333
AR,Puerto San Antonio Este Airstrip,-40.799532,-64.864185
AR,Guardia Mitre Airstrip,-40.418091,-63.663347
AR,La Sistina Airstrip,-36.974031,-62.436969
AR,Anillaco Airport,-28.795111,-66.914675
AR,El Sauzalito Airport,-24.443851,-61.68824
AR,Ingeniero Juárez Airport,-23.904822,-61.820092
AR,La Cruz Airport,-29.159962,-56.658639
AR,Loma Alta Airport,-29.049088,-57.081729
AR,Itá Caabó Airport,-29.29287,-57.727213
AR,Estancia El Cencerro Airport,-30.534775,-60.438022
AR,Estancia El Pinocho,-32.564739,-58.51746
AR,Estancia La Elisa Airport,-34.038888,-59.776944
AR,Estancia Los Leones Airport,-31.170558,-60.718125
AR,Estancia Trebolares Airport,-35.636734,-63.498798
AR,Rincón de Luna Airport,-28.470238,-58.249234
AR,Finca Porvenir 8 Airport,-24.994562,-64.341664
AR,Cabaña Los Gatos Airport,-27.142412,-61.764272
AR,Estancia Las Marias Airport,-32.470437,-66.082103
AR,Estancia 13 de Abril Airport,-35.515511,-61.758924
AR,Pichanal-Franzini Airport,-23.338946,-64.247126
AR,Traill Southeast Airport,-31.922586,-61.692139
AR,El Cuadrado Airport,-28.285565,-61.764686
AR,Los Amores NW Airport,-28.069557,-60.00947
AR,Santa Juana Airport,-28.955846,-56.742668
AR,Estancia La Matilde Airport,-29.356949,-59.872313
AR,La Lola Airport,-29.261898,-59.736593
AR,Blondi Airport,-30.75769,-63.74818
AR,Chajari Sur Airport,-30.80228,-58.014325
AR,Norberto de La Riestra Airport,-35.327705,-59.791042
AR,Estancia El Triángulo Airport,-36.349041,-62.226133
AR,Hallpa Huayra Airport,-32.207863,-64.533906
AR,Las Totoritas Airport,-33.842439,-65.324836
AR,Aerofumigaciones Bartoli Hermanos Airstrip,-33.471415,-62.327058
AR,Aerocampo CSA airport,-31.66145444,-63.27713013
AR,Loncopue Airport,-38.081902,-70.643898
AR,Cachi Airport,-25.10499954,-66.15720367
AR,Cafayate Airport,-26.05610085,-65.93689728
AR,Villa Minetti Airport,-28.6201,-61.6038
AR,Isla Martin Garcia Airport,-34.1821,-58.2469
AR,Bell Ville Airport,-32.6599,-62.702
AR,Santa Rita Airport,-35.8283,-60.1467
AR,El Porton Airport,-37.19499969,-69.60949707
AR,Estancia Don Panos Airport,-26.2959,-59.5353
AR,Campo Arenal Airport,-27.07229996,-66.58609772
AR,Quemu Quemu Airport,-36.0587,-63.6313
AR,Estancia La Estrella Airport,-37.55939865,-58.66600037
AR,Miramar Airport,-38.2271,-57.8697
AR,Lago Fagnano North Airport,-54.499699,-67.173103
AR,La Puntilla Airport,-32.962799,-68.873703
AR,Rio Cuarto Aeroclub Airport,-33.16059875,-64.33820343
AR,Puerto Deseado West Airport,-47.7201004,-65.93240356
AR,Loma La Lata Airport,-38.413799,-68.737297
AR,Veinticinco De Mayo Airport,-37.80979919,-67.65930176
AR,Santa Victoria Airport,-22.28569984,-62.71369934
AR,Apóstoles Airport,-27.90320015,-55.76549912
AR,Calilegua Airport,-23.78190041,-64.74949646
AR,Cañadon Seco Airport,-46.539,-67.5639
AR,Bella Vista Airport,-28.5262,-59.0385
AR,Puerto Rosales Airport,-38.89709854,-62.01029968
AR,Choele Choel Airport,-39.28639984,-65.61029816
AR,San Nicolas De Los Arroyos Airport,-33.3907,-60.1957
AR,Venado Tuerto Airport,-33.6818,-61.9564
AR,Comandante Luis Piedrabuena Airport,-49.9951,-68.9531
AR,Trelew Aeroclub Airport,-43.2356,-65.3241
AR,Andalgalá Airport,-27.63170052,-66.35079956
AR,Saladillo Airport,-35.6081,-59.8164
AR,Las Lajas Airport,-38.53889847,-70.33709717
AR,Jujuy Aeroclub Airport,-24.23649979,-65.26909637
AR,San Juan Aeroclub Airport,-31.60280037,-68.54730225
AR,El Colorado Airport,-26.31668663,-59.33976364
AR,Santa Maria Airport,-26.67340088,-66.02400208
AR,Londres/Belén Airport,-27.70789909,-67.0951004
AR,Frias Airport,-28.63439941,-65.10919952
AR,Fiambala Airport,-27.6422,-67.624702
AR,San Antonio De Areco Airport,-34.2214,-59.4422
AR,Comodoro Pierrestegui Airport,-31.2969,-57.9966
AR,Gualeguaychu Airport,-33.0103,-58.6131
AR,Punta Indio Base Aeronaval,-35.353298,-57.290001
AR,Junin Airport,-34.5459,-60.9306
AR,Pergamino Airport,-33.919,-60.648
AR,General Urquiza Airport,-31.7948,-60.4804
AR,Islas Malvinas Airport,-32.9036,-60.785
AR,Villaguay Airport,-31.855,-59.0756
AR,Sauce Viejo Airport,-31.7117,-60.8117
AR,Jorge Newbery Airpark,-34.5592,-58.4156
AR,Cap D. Omar Darío Gelardi Airport,-31.44190025,-64.2582016
AR,La Cumbre Airport,-31.00580025,-64.5318985
AR,Coronel Olmedo Airport,-31.48749924,-64.1414032
AR,Escuela De Aviacion Militar Airport,-31.44499969,-64.2838974
AR,Pilar Airport,-31.68199921,-63.86380005
AR,Laguna Larga Airport,-31,-63
AR,Villa General Mitre Airport,-30.70059967,-64.04309845
AR,Ascochinga Airport,-30.9679203,-64.27774048
AR,Ingeniero Ambrosio Taravella Airport,-31.323601,-64.208
AR,Chepes Airport,-31.35614204,-66.59188843
AR,Monte Quemado Airport,-25.783563,-62.82884
AR,Villa De Soto Airport,-30.86520004,-64.97899628
AR,Villa Maria Airport,-32.38940048,-63.25859833
AR,San Fernando Airport,-34.4532,-58.5896
AR,Mariano Moreno Airport,-34.5606,-58.7896
AR,La Plata Airport,-34.9722,-57.8947
AR,Moron Airport,-34.6763,-58.6428
AR,Campo De Mayo Airport MIL,-34.5344,-58.6717
AR,El Palomar Airport,-34.6099,-58.6126
AR,Quilmes Airport,-34.7064,-58.2444
AR,Aeródromo San Justo - Aeroclub Argentino,-34.7311,-58.5975
AR,Matanza Airport,-34.7261,-58.5011
AR,General Acha Airport,-37.4007988,-64.6128006
AR,Las Flores Airport,-36.0672,-59.1042
AR,Ñanco Lauquen Airport,-35.9715,-62.7724
AR,Ministro Pistarini International Airport,-34.8222,-58.5358
AR,Rafaela Airport,-31.2825,-61.5017
AR,Chos Malal Airport,-37.44469833,-70.22250366
AR,Caviahue Airport,-37.851398,-71.009201
AR,Dr. Arturo H. Illia Airport,-39.0007019,-67.62049866
AR,Rincon De Los Sauces Airport,-37.3905983,-68.90419769
AR,Zapala Airport,-38.975498,-70.113602
AR,General Alvear Airport,-35.05889893,-67.69280243
AR,Cristo Redentor Airport,-32.80730057,-70.06819916
AR,El Plumerillo Airport,-32.83169937,-68.79290009
AR,Valle Hermoso Airport,-35.14619827,-70.20539856
AR,Jachal Airport,-30.24950027,-68.74019623
AR,Punta De Vacas Airport,-32.854599,-69.76049805
AR,Comodoro D.R. Salomón Airport,-35.49359894,-69.57430267
AR,La Paz Airport,-30.7833,-59.6
AR,Mendoza Airpark,-32.86529922,-68.87190247
AR,Suboficial Ay Santiago Germano Airport,-34.588299,-68.4039
AR,San Carlos Airport,-33.77569962,-69.05370331
AR,Uspallata Airport,-32.53889847,-69.34580231
AR,Catamarca Airport,-28.59560013,-65.75170136
AR,Vicecomodoro Angel D. La Paz Aragonés Airport,-27.76555634,-64.30999756
AR,Las Termas Airport,-27.4737,-64.905502
AR,Capitan V A Almonacid Airport,-29.38159943,-66.79579926
AR,Chilecito Airport,-29.22389984,-67.43890381
AR,Termas de Río Hondo international Airport,-27.4966,-64.93595
AR,Teniente Benjamin Matienzo Airport,-26.8409,-65.104897
AR,Domingo Faustino Sarmiento Airport,-31.571501,-68.418198
AR,Ceres Airport,-29.872292,-61.927925
AR,Area De Material Airport,-33.08509827,-64.26129913
AR,Villa Dolores Airport,-31.94519997,-65.14630127
AR,Rio Tercero Airport,-32.173302,-64.088303
AR,La Quiaca Airport,-22.15060043,-65.57749939
AR,Marcos Juarez Airport,-32.6836,-62.157801
AR,Villa Reynolds Airport,-33.72990036,-65.38739777
AR,Valle Del Conlara International Airport,-32.38470078,-65.18650055
AR,Brigadier Mayor D Cesar Raul Ojeda Airport,-33.27320099,-66.35639954
AR,Presidente Néstor Kirchner Regional Airport,-32.3201,-63.22663
AR,Corrientes Airport,-27.4455,-58.7619
AR,Resistencia International Airport,-27.45,-59.0561
AR,Formosa Airport,-26.2127,-58.2281
AR,Caa Cati Airport,-27.75530052,-57.63299942
AR,Cataratas Del Iguazú International Airport,-25.737301,-54.4734
AR,Paso De Los Libres Airport,-29.6894,-57.1521
AR,Monte Caseros Airport,-30.2719,-57.6402
AR,Libertador Gral D Jose De San Martin Airport,-27.3858,-55.9707
AR,Villa Angela Airport,-27.5915,-60.6864
AR,Martin Miguel De Guemes International Airport,-24.8560009,-65.48619843
AR,Gobernador Horacio Guzman International Airport,-24.392799,-65.097801
AR,Salar De Cauchari Airport,-24.01919937,-66.79720306
AR,Orán Airport,-23.15279961,-64.32920074
AR,Laboulaye Airport,-34.13539886,-63.36230087
AR,Rivadavia Airport,-24.18860054,-62.88339996
AR,General Enrique Mosconi Airport,-22.6196003,-63.79370117
AR,Clorinda Airport,-25.3036,-57.7344
AR,El Dorado Airport,-26.39749908,-54.5746994
AR,Goya Airport,-29.1058,-59.2189
AR,Bernardo De Irigoyen Airport,-26.281388,-53.673332
AR,Alferez Armando Rodriguez Airport,-24.72139931,-60.54880142
AR,Mercedes Airport,-29.22139931,-58.08779907
AR,Oberá Airport,-27.51819992,-55.12419891
AR,Reconquista Airport,-29.2103,-59.68
AR,Curuzu Cuatia Airport,-29.7706,-57.9789
AR,Piedra Del Aguila Airport,-40.19219971,-70.01000214
AR,El Bolson Airport,-41.94319916,-71.53230286
AR,General E. Mosconi Airport,-45.7853,-67.4655
AR,El Maiten Airport,-42.02920151,-71.17250061
AR,Brigadier Antonio Parodi Airport,-42.90800095,-71.13950348
AR,Las Heras Airport,-46.53829956,-68.96530151
AR,Cabo F.A.A. H. R. Bordón Airport,-41.32089996,-69.57489777
AR,Lago Musters Airport,-45.5752,-69.077
AR,Antoine de Saint Exupéry Airport,-40.7512,-65.0343
AR,San Pedro Airport,-33.698,-59.7267
AR,Paso De Los Indios Airport,-43.86669922,-69.05000305
AR,Maquinchao Airport,-41.24309921,-68.70780182
AR,D. Casimiro Szlapelis Airport,-45.013599,-70.812202
AR,Sierra Grande Airport,-41.59170151,-65.33940125
AR,Almirante Marco Andres Zar Airport,-43.2105,-65.2703
AR,Gobernador Castello Airport,-40.8692,-63.0004
AR,El Tehuelche Airport,-42.7592,-65.1027
AR,El Calafate Airport,-50.2803,-72.053101
AR,Puerto Deseado Airport,-47.7353,-65.9041
AR,Hermes Quijada International Airport,-53.7777,-67.7494
AR,Piloto Civil N. Fernández Airport,-51.6089,-69.3126
AR,Malvinas Argentinas Airport,-54.8433,-68.2958
AR,Capitan D Daniel Vazquez Airport,-49.3068,-67.8026
AR,Tolwin Observatory Airport,-54.52190018,-67.1989975
AR,Rio Mayo Airport,-45.70389938,-70.24559784
AR,Estación Aeronaval Airport,-54.8227,-68.3043
AR,Perito Moreno Airport,-46.537899,-70.978699
AR,Gobernador Gregores Airport,-48.7831,-70.150002
AR,Jose De San Martin Airport,-44.04859924,-70.45890045
AR,28 de Noviembre Airport,-51.605,-72.2203
AR,Santa Cruz Airport,-50.0165,-68.5792
AR,Azul Airport,-36.8368988,-59.88029861
AR,Comandante Espora Airport,-38.725,-62.1693
AR,Brigadier D.H.E. Ruiz Airport,-37.446098,-61.889301
AR,Dolores Airport,-36.3225,-57.7214
AR,Pigüé Airport,-37.60169983,-62.37810135
AR,Olavarria Airport,-36.88999939,-60.21659851
AR,General Pico Airport,-35.69620132,-63.75830078
AR,Tres Arroyos Airport,-38.3869,-60.3297
AR,Bolivar Airport,-36.1866,-61.0764
AR,Benito Juarez Airport,-37.70610046,-59.79190063
AR,Cerro Catedral Airport,-41.16329956,-71.44270325
AR,Santa Teresita Airport,-36.5423,-56.7218
AR,Ástor Piazzola International Airport,-37.9342,-57.5733
AR,Presidente Peron Airport,-38.949001,-68.155701
AR,Necochea Airport,-38.4831,-58.8172
AR,Comodoro Pedro Zanni Airport,-35.8446,-61.8576
AR,Rio Colorado Airport,-38.995,-64.1408
AR,Santa Rosa Airport,-36.588299,-64.275703
AR,San Carlos De Bariloche Airport,-41.151199,-71.157501
AR,Héroes De Malvinas Airport,-37.23740005,-59.22790146
AR,Puelches Airport,-38.14510345,-65.92294312
AR,Villa Gesell Airport,-37.2354,-57.0292
AR,Cutral-Co Airport,-38.93970108,-69.26460266
AR,Nueve De Julio Airport,-35.3997,-60.9358
AR,Aviador C. Campos Airport,-40.075401,-71.137299
AS,Ofu Airport,-14.1844,-169.669998
AS,Fitiuta Airport,-14.2172,-169.425003
AS,Pago Pago International Airport,-14.33100033,-170.7100067
AT,Ameis Airstrip,48.657837,16.540234
AT,Ottenschlag Airport,48.4189,15.215661
AT,Dobersberg Airfield,48.922222,15.296944
AT,Völtendorf Airport,48.160081,15.58677
AT,Krems Airport,48.446389,15.634167
AT,Wiener Neustadt East Airport,47.84329987,16.26009941
AT,Altlichtenwarth Gliderfield,48.6661,16.825
AT,Spitzerberg Airfield,48.099157,16.933527
AT,Stockerau Airport,48.408928,16.189974
AT,Vöslau-Kottingbrunn Airport,47.965,16.26
AT,Fürstenfeld Airport,47.061873,16.083901
AT,Punitz-Güssing Airport,47.146654,16.317058
AT,Trieben Airport,47.493364,14.49558
AT,Kapfenberg Airport,47.457544,15.331125
AT,Lanzen-Turnau Airport,47.556238,15.320738
AT,Mariazell Airport,47.789733,15.300333
AT,Niederöblarn Airport,47.478742,14.007101
AT,Pinkafeld Airport,47.38668442,16.11267281
AT,Leoben/Timmersdorf Airfield,47.37961,14.96425
AT,Unterfladnitz Airport,47.170293,15.664468
AT,Hohenems-Dornbirn Airfield,47.384998,9.7
AT,Sankt Johann Airport,47.5201,12.4497
AT,Kufstein-Langkampfen Airport,47.565117,12.12807
AT,Reutte-Höfen Airport,47.470897,10.6913
AT,Feldkirchen Airfield,46.70893,14.076722
AT,Ferlach-Glainach Airport,46.532778,14.330833
AT,Hirt Airport,46.928692,14.431641
AT,Lienz-Nikolsdorf Airport,46.798333,12.878333
AT,Mayerhofen Airport,46.97579956,14.37170029
AT,Nötsch im Gailtal Airfield,46.5811,13.6292
AT,Sankt Donat / Mairist Airport,46.743139,14.413134
AT,Wolfsberg Airport,46.818202,14.825154
AT,Scharnstein Airport,47.89860153,13.93939972
AT,Eferding Airport,48.338333,13.985278
AT,Freistadt Airport,48.513748,14.406579
AT,Sankt Georgen Airport,48.10332,14.951091
AT,HB Hofkirchen Airport,48.13911,14.33584
AT,Ried-Kirchheim Airport,48.21227,13.345678
AT,Micheldorf Airport,47.871669,14.125149
AT,Linz-East Airport,48.300044,14.333606
AT,Schärding-Suben Airport,48.403301,13.4483
AT,Seitenstetten Airport,48.0505556,14.6619444
AT,Gmunden-Laakirchen Airfield,47.951698,13.8667
AT,Wels Airport,48.18330002,14.04090023
AT,Mauterndorf Airport,47.131995,13.695867
AT,Graz Airport,46.9911,15.4396
AT,Innsbruck Airport,47.260201,11.344
AT,Klagenfurt Airport,46.642502,14.3377
AT,Linz-Hörsching Airport / Vogler Air Base,48.2332,14.1875
AT,Salzburg Airport,47.79330063,13.00430012
AT,Vienna International Airport,48.110298,16.5697
AT,Zell am See Airport,47.291468,12.790632
AT,Fiala-Fernbrugg Air Base,47.53573,14.141488
AT,Wiener Neustadt West Airport,47.836933,16.221838
AT,Brumowski  Air Base,48.319247,16.114016
AT,Hinterstoisser Air Base,47.202801,14.7442
AU,Argyle Downs Airport,-16.514,128.9245
AU,Angus Downs Airport,-25.0325,132.2748
AU,Dwellingup Airstrip,-32.69269943,116.0749969
AU,Tjukayirla Roadhouse Airstrip,-27.155199,124.584999
AU,Langley Park Airstrip,-31.96122932,115.8678665
AU,Myrup fly in estate Airport,-33.79370117,121.9580002
AU,Harrismith Airport,-32.94184494,117.865448
AU,Kulin Airport,-32.67219925,118.1689987
AU,Althorpe Lighthouse Airstrip,-35.37070084,136.8609924
AU,Pinjarra North Airstrip,-32.58039856,115.8850021
AU,Pinjarra Skydiving Airstrip,-32.6665196,115.8817452
AU,Wheeler Field,-32.787491,115.7894826
AU,Lake Clifton Airstrip,-32.79093552,115.6708832
AU,Between Lakes Private Airstrip,-32.84999847,115.6399994
AU,Abrolhos East Wallabi Island Airport,-28.43785,113.7355833
AU,Bremer Bay Airport,-34.38056183,119.3319473
AU,Middlebrook Station Scone Airstrip,-31.97116852,150.8114777
AU,Lily Dutch Windmill Airstrip,-34.22500229,118.2161484
AU,Preston Field - Blair Howe,-33.01879883,115.7009964
AU,Avoca Airport,-41.78170013,147.7194061
AU,Kukerin,-33.17490005,118.0849991
AU,Karijini National Park,-22.487101,118.468002
AU,Cardabia Station Airstrip,-23.10602379,113.8052292
AU,Woodbury Airfield,-42.16777802,147.4458313
AU,Port Fairy,-38.36196518,142.2642212
AU,Northcliffe Airstrips (needs confirmation),-34.6590004,116.1520004
AU,Yuin Station,-27.98333359,116.0333328
AU,Boobyalla Airfield,-40.89916611,147.8647156
AU,Moonambel Airfield,-36.97166824,143.2861176
AU,Stirling Range Retreat,-34.31240082,118.185997
AU,Frankland Valley Vineyard,-34.34769821,116.9520035
AU,Tumbarumba Airport,-35.7626038,147.886885
AU,Tardun Christian Brothers airfield,-28.70870018,115.8176498
AU,New Norcia airstrip,-30.96663,116.21547
AU,New Norcia North,-30.92100274,116.2399864
AU,Abrolhos North Island,-28.29981667,113.5958
AU,Abrolhos Island,-28.4754063,113.6891842
AU,Kilcoy Airfield,-26.971128,152.566575
AU,Maitraya Resort Airstrip,-34.98746434,118.055563
AU,Chittering Airstrip,-31.52119082,116.1472893
AU,Trawalla Airport,-37.43874736,143.4589577
AU,Pomonal Airstrip,-37.230559,142.677165
AU,Lake Eyre North,-28.41666667,137.3
AU,Yardie Homestead,-21.88404026,114.0065646
AU,Kulin Bush Races Strip,-32.66444444,118.3108333
AU,Kooringal Airstrip,-27.34583333,153.4258333
AU,Huntfield Airfield,-35.17254545,138.4936094
AU,Lake Omeo Dry Lake Ultralightport,-36.96175738,147.6727295
AU,Snowy Range Airfield,-37.34857341,146.7660463
AU,Delatite Airstrip,-37.145053,146.159431
AU,Sherlock Ultralight Airfield,-35.32027778,139.7925222
AU,Warroora Station Airstrip,-23.47487,113.79925
AU,Lady Elliot Island Airstrip,-24.1129,152.7156
AU,Nambung Station Private Airstrip,-30.577798,115.225055
AU,Dingo Airstrip,-23.655,149.338
AU,Toby's Gap Airstrip,-25.5887,153.0646
AU,Boggabilla Airstrip,-28.6172,150.3324
AU,Valley View,-28.699218,114.911043
AU,Midway,-32.672544,115.789526
AU,Wheeler Drome,-32.786914,115.910386
AU,Unknown Farm Strip,-33.094903,115.717181
AU,Murgenella Airstrip,-11.5494,132.9142
AU,Aileron Airstrip,-22.652908,133.347244
AU,Overlander Airport,-26.407707,114.45385
AU,Denman Farm Strip,-32.379816,150.695005
AU,Swan Reach Airport,-34.556053,139.592156
AU,Alcoota Station Airport,-22.801963,134.4036
AU,Balma Airfield,-13.247423,135.848699
AU,Ban Ban Airfield,-13.376886,131.495318
AU,Banka Banka Airstrip,-18.79853,134.039619
AU,Baygurrtji Airfield,-13.146384,135.817344
AU,Wright Field,-36.093359,143.782748
AU,Birany Birany Airfield,-12.816959,136.471556
AU,Bullita Airfield,-16.119461,130.429044
AU,Bunda Landing Ground,-17.996474,129.348671
AU,Chilla Well Landing Ground,-21.499888,130.961747
AU,Cox River Landing Ground,-15.867686,134.558959
AU,Crab Claw Island Landing Ground,-12.713254,130.622849
AU,Donydji Airport,-12.888913,135.466661
AU,Manyallaluk Airport,-14.265449,132.82983
AU,Finniss River Landing Ground,-12.872221,130.54513
AU,Fish River Landing Ground,-14.188069,130.881436
AU,Gerald Farm Airfield,-12.500167,130.765833
AU,Derby Field,-36.6128,144.0186
AU,Rothwell Airfield,-37.883407,144.443387
AU,Parra Wirra Helipad,-34.678754,138.83491
AU,Strowan,-32.460996,150.861705
AU,Agnew Airport,-12.14560032,142.1490021
AU,Alroy Downs Airport,-19.29080009,136.0789948
AU,Baniyala Airport,-13.19810009,136.227005
AU,Coolibah Airport,-15.54829979,130.9620056
AU,Coorabie Airport,-31.89439964,132.2960052
AU,Carlton Hill Airport,-15.50189972,128.5339966
AU,Cresswell Downs Airport,-17.94799995,135.9160004
AU,Diamantina Lakes Airport,-23.76169968,141.1450043
AU,Helenvale Airport,-15.6857996,145.2149963
AU,Kimberley Downs Airport,-17.39780045,124.3550034
AU,Kulgera Airport,-25.84280014,133.2920074
AU,Miranda Downs Airport,-17.328899,141.886002
AU,Camballin Airport,-18.12470055,124.2720032
AU,Orchid Beach Airport,-24.95940018,153.3150024
AU,Peppimenarti Airport,-14.14420033,130.0910034
AU,Rockhampton Downs Airport,-18.95330048,135.201004
AU,Sturt Creek Airport,-19.16640091,128.173996
AU,Shaw River Airport,-21.51029968,119.3619995
AU,Tom Price Airport,-22.74600029,117.8690033
AU,Torwood Airport,-17.36330032,143.75
AU,Springvale Airport,-17.78689957,127.6699982
AU,Milyakburra Airport,-13.78083333,136.2016667
AU,Brighton Downs Airport,-23.36388889,141.5627778
AU,Cherrabun Airport,-18.91777778,125.5377778
AU,Dalhousie Airport,-26.42900085,135.5059967
AU,Fossil Downs Airport,-18.1321,125.7873
AU,Kamaran Downs Airport,-24.3388,139.2785
AU,Lansdowne Airport,-17.6128,126.743
AU,Mulan Airport,-20.1089,127.619
AU,Logan Reserve Airport,-27.70829964,153.1049957
AU,Lissadell Airport,-16.661,128.594
AU,Mainoru Airstrip,-14.0533,134.0942
AU,Moroak Airport,-14.818133,133.700594
AU,Newry Airport,-16.0442,129.2638
AU,Natya Airport,-34.96829987,143.2330017
AU,Orientos Airport,-28.0598,141.5361
AU,Koralta Station Airpirt,-31.624885,142.296143
AU,Rokeby Airport,-13.6434,142.641
AU,Rosella Plains Airport,-18.4253,144.4587
AU,Roper Valley Airport,-14.9215,134.05
AU,Solomon Airport,-22.2554,117.7627
AU,Sandringham Airport,-24.0568,139.0821
AU,Crystal Brook Airport,-17.45000076,144.4499969
AU,Waverney Airport,-25.3563,141.9254
AU,Welshpool Airport,-38.682382,146.445331
AU,Yarralin Airport,-16.44470024,130.8809967
AU,Albany Airport,-34.94329834,117.8089981
AU,Abingdon Downs Airport,-17.61669922,143.1670074
AU,Albion Downs Airport,-27.2833004,120.3830032
AU,Amburla Airport,-23.339897,133.172332
AU,Arcadia Airport,-25.20000076,148.6829987
AU,Acacia Downs Airport,-31.41670036,141.8999939
AU,Arubiddy Airport,-31.79999924,125.9329987
AU,Aldinga Airport,-35.29000092,138.4900055
AU,Adaminaby Airport,-35.99779892,148.7960052
AU,Yandan Mine Airport,-21.27333333,146.99
AU,Andado Airport,-25.407772,135.290794
AU,Alton Downs Airport,-26.488959,139.259906
AU,Adaminaby Airport,-35.98329926,148.8000031
AU,Augustus Downs Airport,-18.51499939,139.878006
AU,Ashburton Downs Airport,-23.38330078,117.0329971
AU,Arckaringa Airport,-27.94669914,134.7449951
AU,Marla Airport,-27.33329964,133.6269989
AU,Alcoota Station Airport,-22.83329964,134.4499969
AU,Adels Grove Airport,-18.70000076,138.5330048
AU,Albilbah Airport,-24.70000076,144.2830048
AU,Allambie Airport,-24.26670074,134.3999939
AU,Allandy Airport,-30.38330078,142.6000061
AU,Alexandria Homestead Airport,-19.06019974,136.7100067
AU,Alderley Airport,-22.48329926,139.6329956
AU,RAAF Base Amberley,-27.6406,152.712006
AU,Aramac Airport,-22.9666996,145.2420044
AU,Ampilatwatja Airport,-21.654955,135.23097
AU,Andamooka Airport,-30.438299,137.136993
AU,Armraynald Airport,-17.9666996,139.7669983
AU,Ammaroo Airport,-21.73830032,135.2420044
AU,Amata Airport,-26.097363,131.202732
AU,Answer Downs Airport,-21.66670036,140.9830017
AU,West Angelas Airport,-23.13555556,118.7072222
AU,Angatja Airport,-26.10000038,130.3999939
AU,Anna Creek Airport,-28.89669991,136.1699982
AU,Anthony Lagoon Airport,-18.01807903,135.5350685
AU,Anningie Airport,-21.83169937,133.125
AU,Annitowa Airport,-21.200017,136.451139
AU,Ardmore Airport,-21.64999962,139.1829987
AU,Anna Plains Airport,-19.26670074,121.5169983
AU,Alpha Airport,-23.646099,146.584
AU,Apollo Bay Airport,-38.77493023,143.6611748
AU,Ararat Airport,-37.309978,142.988688
AU,Argadargada Airport,-21.67670059,136.6779938
AU,Argyle Airport,-16.6369,128.451004
AU,Arizona 1 Airport,-21.66670036,141.5670013
AU,Arkaroola Airport,-30.40670013,139.345993
AU,Ardlethan Airport,-34.36669922,146.8829956
AU,Armidale Airport,-30.52809906,151.6170044
AU,Areyonga Airport,-24.091565,132.271228
AU,Arapunya Airport,-22.31669998,135.6999969
AU,Ardrossan Airport,-34.44718889,137.8882917
AU,Arrabury Airport,-26.693023,141.047771
AU,Ashford Airport,-29.31669998,151.0500031
AU,Bakblok Airport,-34.88669968,149.0149994
AU,Atula Airport,-23.255344,136.388955
AU,Atherton Airport,-17.26169968,145.5149994
AU,Amphitheatre Airport,-37.18330002,143.3999939
AU,Atley Airport,-28.2166996,119.25
AU,Augathella Airport,-25.75499916,146.5870056
AU,Tallinup-Augusta Airport,-34.328604,115.157029
AU,Aurukun Airport,-13.354067,141.72065
AU,Austral Downs Airport,-20.5,137.75
AU,Auvergne Airport,-15.69999981,130
AU,Avon Downs Airport,-20.0333004,137.5169983
AU,Avonmore Airport,-36.56669998,144.5500031
AU,Agnes Water Airport,-24.20224,151.8925
AU,Ayers Rock Connellan Airport,-25.1861,130.975998
AU,Ayr Airport,-19.58440018,147.3289948
AU,Baralaba,-24.19357,149.843166
AU,Baradine Airport,-30.95499992,149.0919952
AU,Brisbane Archerfield Airport,-27.57029915,153.0079956
AU,Bauhinia Downs Airport,-16.13330078,135.4669952
AU,Balladonia Airport,-32.34999847,123.6179962
AU,Mount Barnet Airport,-16.73719978,125.9089966
AU,Braidwood Airport,-35.45000076,149.8500061
AU,Barcaldine Airport,-23.56529999,145.3070068
AU,Alice Springs Airport,-23.80669975,133.9019928
AU,Badu Island Airport,-10.14999962,142.1734
AU,Barkly Downs Airport,-20.49583333,138.4747222
AU,Barraba Airport,-30.38330078,150.6000061
AU,Bamboo Creek Airport,-20.94459915,120.1650009
AU,Big Bell Airport,-27.32859993,117.6729965
AU,Billabalong Airport,-27.41670036,115.8330002
AU,Brisbane International Airport,-27.38419914,153.1170044
AU,Bon Bon Airport,-30.40670013,135.4799957
AU,Boort Airport,-36.138637,143.722994
AU,Bencubbin Airport,-30.83329964,117.8669968
AU,Gold Coast Airport,-28.1644001,153.5050049
AU,Beechworth Airport,-36.39333333,146.6963889
AU,Blackall Airport,-24.42779922,145.4290009
AU,Boolcarrol Station Airport,-30.04999924,149.4170074
AU,Coominya,-27.39074477,152.4665451
AU,Batchelor Airport,-13.06669998,131.0330048
AU,Cairns International Airport,-16.88579941,145.7550049
AU,Charleville Airport,-26.41329956,146.2619934
AU,Bedford Downs Airport,-17.2866993,127.4629974
AU,Bendigo Airport,-36.73939896,144.3300018
AU,Bridport Airport,-41.01670074,147.4170074
AU,Birthday Siding Airport,-30.2833004,134.5169983
AU,Birrindudu Airport,-18.384522,129.437592
AU,Birdsville Airport,-25.89749908,139.3480072
AU,Barradale Airport,-22.86330032,114.9629974
AU,Bellburn Airstrip,-17.545,128.305
AU,Beacon Airport,-30.48329926,117.8830032
AU,Beverley Airport,-30.18670082,139.5579987
AU,Beaufort Airport,-37.45000076,143.25
AU,Bothwell Airport,-42.36669922,147.0330048
AU,Betoota Airport,-25.64170074,140.7830048
AU,Beulah 1 Airport,-35.95000076,142.4170074
AU,Beverley Airport,-32.13330078,116.9499969
AU,Beechworth Airport,-31.91670036,144.6329956
AU,Balfour Airport,-41.25903326,144.8860645
AU,Beaufort,-37.495,143.43
AU,Beagle Bay Airport,-17.0165,122.6464
AU,Boolgeeda,-22.54,117.275
AU,Balgair Airport,-31.06669998,125.6669998
AU,Balgo Hill Airport,-20.1483,127.973
AU,Bridgewater Airport,-36.61669922,143.9499969
AU,Budgerygar Airport,-25.37000084,143.772995
AU,Biniguy Airport,-29.50499916,150.1920013
AU,Bathurst Harbour Airport,-43.42070007,146.1560059
AU,Broken Hill Airport,-32.00139999,141.4720001
AU,Bushy Park Airport,-21.26670074,139.7169952
AU,Hamilton Island Airport,-20.35810089,148.9519959
AU,Bingara Airport,-29.79999924,150.5330048
AU,Binda,-34.30333333,149.36
AU,Bedourie Airport,-24.34609985,139.4600067
AU,Balbirini Airfield,-16.72373,135.736915
AU,Billiluna Airport,-19.56669998,127.6669998
AU,Biggenden Airport,-25.52499962,152.0500031
AU,Birchip Airport,-35.99969864,142.9170074
AU,Ballidu Airport,-30.59329987,116.7799988
AU,Bizant Airport,-14.74027778,144.1194444
AU,Banjawarn Airport,-27.66670036,121.5999985
AU,Bourke Airport,-30.03919983,145.9519958
AU,Barkly Wayside Inn Airport,-19.70919991,135.8190002
AU,Burketown Airport,-17.74860001,139.5339966
AU,Benalla Airport,-36.551899,146.007004
AU,Billabong Road House Airport,-26.81669998,114.6169968
AU,Balcanoona Airport,-30.53499985,139.3370056
AU,Brooklands Airport,-31.82500076,116.7959976
AU,Bollards Lagoon Airport,-28.98329926,140.8500061
AU,Bellalie Airport,-27.0333004,142.9499969
AU,Bollon Airport,-28.05830002,147.4830017
AU,Blinman Airport,-31.11860085,138.7259979
AU,Busselton Regional Airport,-33.68842316,115.4015961
AU,Ballarat Airport,-37.51169968,143.7910004
AU,Bellevue Airport,-27.612302,120.594435
AU,Mount Isa Airport,-20.66390038,139.4889984
AU,Bloomfield River Airport,-15.87360001,145.3300018
AU,Boomi Airport,-28.73329926,149.5829926
AU,Mackay Airport,-21.17169952,149.1799927
AU,Bamawm Airport,-36.25,144.6329956
AU,Bombala Airport,-36.90499878,149.1820068
AU,Barmera Airport,-34.25669861,140.4579926
AU,Bamyili Airport,-14.52000046,132.8829956
AU,Ballina Byron Gateway Airport,-28.83390045,153.5619965
AU,Bannockburn Airport,-21.79999924,145.0829926
AU,Benmara Airport,-17.93670082,136.8999939
AU,Bairnsdale Airport,-37.88750076,147.5679932
AU,Brunchilly Airport,-18.87000084,134.4620056
AU,Boonah Airport,-28.017458,152.676459
AU,Booleroo Centre Airport,-32.90499878,138.3600006
AU,Bodalla Airport,-26.29999924,143.3829956
AU,Boggabri Airport,-30.7166996,150.0500031
AU,Boigu Airport,-9.232780457,142.2180023
AU,Oakey Airport,-27.41139984,151.7350006
AU,Bombala Airport,-36.90499878,149.1820068
AU,Catholic Agricultural College Bindoon Airstrip,-31.34029961,116.1880035
AU,Boyup Brook Airport,-33.90000153,116.4670029
AU,Bordertown Airport,-36.268104,140.721991
AU,Boatman Airport,-27.25,146.9170074
AU,Boulia Airport,-22.91329956,139.8999939
AU,Border Village Airport,-31.63940048,129.0119934
AU,Booylgoo Springs Airport,-27.75,119.9000015
AU,Brampton Island Airport,-20.804633,149.279931
AU,Proserpine Whitsunday Coast Airport,-20.49500084,148.552002
AU,Benambra Airport,-36.96686656,147.6991439
AU,Barrow Creek Airport,-21.542202,133.871959
AU,Burren Junction Airport,-30.1583004,148.9750061
AU,Rockhampton Airport,-23.38190079,150.4750061
AU,Borroloola Airport,-16.07530022,136.302002
AU,Broome International Airport,-17.94470024,122.2320023
AU,Balranald Airport,-34.62360001,143.5780029
AU,Bruce Rock Airport,-31.88330078,118.1169968
AU,Barwon Heads Airport,-38.258056,144.4275
AU,Brunette Downs Airport,-18.63999939,135.9380035
AU,Brewarrina Airport,-29.97389984,146.8170013
AU,Barimunya Airport,-22.6739006,119.1660004
AU,RAAF Scherger,-12.62390041,142.0870056
AU,Bond Springs Airport,-23.51499939,133.8430023
AU,Blackstone Airport,-25.98670006,128.2879944
AU,Bacchus Marsh Airport,-37.73333333,144.4216667
AU,Sunshine Coast Airport,-26.6033,153.091003
AU,Brighton Downs Airport,-23.35000038,143.5330048
AU,Bathurst Airport,-33.40940094,149.6519928
AU,Bathurst Island Airport,-11.76920033,130.6199951
AU,Bentinck Island Airport,-17.08670235,139.5657806
AU,Townsville Airport,-19.25250053,146.7649994
AU,Barton Siding Airport,-30.52499962,132.6600037
AU,Blackwater Airport,-23.60309982,148.8070068
AU,Battery Downs Airport,-19.43330002,145.8500061
AU,Buttabone Airport,-31.35829926,147.6329956
AU,Batavia Downs Airport,-12.65919971,142.6750031
AU,Bundarra Airport,-21.9666996,148.5330048
AU,Bundaberg Airport,-24.90390015,152.3190002
AU,Bulga Downs Station Airport,-28.5,119.7330017
AU,Bulgunnia Airport,-30.18670082,134.9029999
AU,Bunbury Airport,-33.37829971,115.677002
AU,Bulloo Downs Station Airport,-24.01670074,119.5670013
AU,Bunyip Airport,-38.01670074,145.75
AU,Bungle Bungle Airport,-17.54529953,128.3070068
AU,Bulleringa Airport,-17.64999962,143.8000031
AU,Bunyan Airfield,-36.13420084,149.1319799
AU,Balaklava Airport,-34.08430099,138.3339996
AU,Blackville Airport,-31.58329964,150.1829987
AU,Bullo River Valley Airport,-15.4666996,129.7669983
AU,Bronzewing Airport,-27.36560059,121.0360031
AU,Burdekin Falls Dam Airport,-20.60000038,147.0829926
AU,Bulimba Airport,-16.88080025,143.4790039
AU,Bowen Airport,-20.0182991,148.2149963
AU,Bowen Downs Airport,-22.4641,144.99785
AU,Weipa Airport,-12.67860031,141.9250031
AU,Bolwarra Airport,-17.38829994,144.1690063
AU,Browse Is Airport,-14.11170006,123.5469971
AU,Bowthorn Airport,-18.08329964,138.2749939
AU,Brisbane West Wellcamp Airport,-27.558332,151.793335
AU,Barrow Island Airport,-20.86440086,115.4059982
AU,Branxholme Airport,-37.86729813,141.7019958
AU,Bryah Airport,-25.5333004,118.7330017
AU,Bonney Downs Station Airport,-22.26670074,119.8830032
AU,Bruny Island Airport,-43.23419952,147.3800049
AU,Baryulgil Airstrip,-29.21829,152.61611
AU,Byrock Airport,-30.66670036,146.3999939
AU,Beverley Springs Airport,-16.73329926,125.4329987
AU,Bayswater Airport,-25.45000076,145.5829926
AU,Breeza Airport,-31.31669998,150.5169983
AU,Caboolture Airport,-27.0833,152.983002
AU,Cattle Creek Airport,-17.60700035,131.548996
AU,Campbell Town Airport,-41.96722412,147.5305481
AU,Caiguna Airport,-32.26499939,125.4929962
AU,Coolah Airport,-31.77330017,149.6100006
AU,Callion Airport,-30.11669922,120.5830002
AU,Cadjebut Airport,-18.70000076,125.9000015
AU,Castlemaine Airport,-37.13330078,144.1670074
AU,Cannington Station Airport,-21.875,140.8999939
AU,Cannon Hill Community Airport,-12.3549,132.94495
AU,Carnarvon Airport,-24.880211,113.67174
AU,Casino Airport,-28.88279915,153.0670013
AU,Cobar Airport,-31.53829956,145.7940063
AU,Coonabarabran Airport,-31.33250046,149.2669983
AU,Canobie Airport,-19.47940063,140.927002
AU,Hobart Cambridge Airport,-42.8266983,147.4750061
AU,Cape Barren Island Airport,-40.39170074,148.0169983
AU,Cape Borda Airport,-35.75669861,136.5980072
AU,Coober Pedy Airport,-29.04000092,134.720993
AU,Collarenebri Airport,-29.52169991,148.5820007
AU,Daintree Airport,-16.21934128,145.4247284
AU,Chinchilla Airport,-26.77499962,150.6170044
AU,Cape Crawford Airport,-16.687676,135.730097
AU,Canteen Creek Airport,-20.6508007,135.5850067
AU,Coconut Island Airport,-10.05000019,143.0700073
AU,Cloncurry Airport,-20.66860008,140.5039978
AU,Coondambo Airport,-31.06669998,135.8829956
AU,Cobden Airport,-38.326666,143.056666
AU,Cadney Homestead Airport,-27.9083004,134.0529938
AU,Condobolin Airport,-33.06439972,147.2089996
AU,Caloundra Airport,-26.799999,153.100006
AU,Childers Airport,-25.25308007,152.3353958
AU,Carandotta Airport,-21.9666996,138.6170044
AU,Ceduna Airport,-32.13059998,133.7100067
AU,Caldervale Station Airport,-25.10829926,146.8329926
AU,Cleve Airport,-33.70970154,136.5050049
AU,Capella Airport,-23.10000038,148.0330048
AU,Coldstream Airport,-37.72766876,145.408371
AU,Ceres Airport,-38.14830017,144.2579956
AU,Camfield Airport,-17.02169991,131.3269958
AU,Clifton Hills Airport,-27.0182991,138.8919983
AU,Cape Flattery Airport,-14.970832,145.311667
AU,Clifton Airport,-27.928301,151.847
AU,Coffs Harbour Airport,-30.320601,153.115997
AU,Clonagh Airport,-20.13330078,140.6829987
AU,Carnegie Station Airport,-25.79999924,122.9670029
AU,Chillagoe Airport,-17.14279938,144.529007
AU,Cherrabah Airport,-28.4301,152.08895
AU,Graeme Rowley Aerodrome,-22.3543,119.6426
AU,Charlton Airport,-36.25,143.300003
AU,Childra Airport,-31.70000076,134.8329926
AU,Charters Towers Airport,-20.04310036,146.272995
AU,Corrigin Airport,-32.33330154,117.8170013
AU,RAAF Base Curtin,-17.58139992,123.8280029
AU,Conjuboy Airport,-18.68330002,144.75
AU,Curdimurka Airport,-29.47669983,137.0879974
AU,Clarke Island Airport,-40.51670074,148.1329956
AU,Croker Island Airport,-11.16499996,132.4830017
AU,Cooktown Airport,-15.44470024,145.1840057
AU,Cocklebiddy Airport,-32.042741,126.09122
AU,Clare Station Airport,-33.4068985,143.9400024
AU,Claremont Airbase,-34.992641,138.927215
AU,Callendale Airport,-37.24330139,140.4450073
AU,Coolgardie Airport,-30.95000076,121.1500015
AU,Collymongle Airport,-29.45330048,148.7429962
AU,Cape Leveque Airport,-16.39830017,122.9319992
AU,Collector Airport,-34.88330078,149.4170074
AU,Coleambally Airport,-34.79999924,145.8500061
AU,Camden Haven Airport,-31.66500092,152.7420044
AU,Camel Creek Airport,-18.85000038,145.4669952
AU,Cummins Town Airport,-34.25830078,135.7079926
AU,Clermont Airport,-22.7730999,147.6210022
AU,Cunnamulla Airport,-28.03000069,145.621994
AU,Camooweal Airport,-19.9116993,138.125
AU,Corona Station Airport,-31.29080009,141.4519958
AU,Camp Nifty Airport,-21.67169952,121.586998
AU,Cooranga Airport,-36.81999969,140.272995
AU,Carnarmah Airport,-29.68330002,115.8830032
AU,Cessnock Airport,-32.787498,151.341995
AU,Coonamble Airport,-30.98329926,148.3760071
AU,Coonana Airport,-31.01670074,123.1669998
AU,Conargo Airport,-35.31669998,145.1170044
AU,Coonawarra Airport,-37.28329849,140.8000031
AU,Cann River Airport,-37.51670074,149.1670074
AU,Coniston Airport,-22.13330078,132.5330048
AU,Cooranga Airport,-29.06669998,150.7669983
AU,Century Mine Airport,-18.75329971,138.7070007
AU,Cordillo Downs Airport,-26.74530029,140.6380005
AU,Coen Airport,-13.761133,143.113311
AU,Coffin Bay Airport,-34.63330078,135.5169983
AU,Coongan Airport,-20.68330002,119.6669998
AU,Cohuna Airport,-35.81669998,144.1999969
AU,Collie Airport,-33.36669922,116.2170029
AU,Coleraine Airport,-37.59999847,141.6999969
AU,Cooma Snowy Mountains Airport,-36.30059814,148.973999
AU,Cooinda Airport,-12.90330029,132.5319977
AU,Corowa Airport,-35.99470139,146.3569946
AU,Cosmo Newberry Airport,-27.98500061,122.9029999
AU,Coral Bay Airport,-23.12999916,113.7770004
AU,Cape Don Airport,-11.29829979,131.8269958
AU,Coppins Gap Airport,-20.95000076,120.0329971
AU,Copper Hills Airport,-27.97830009,134.3170013
AU,Carpentaria Downs Airport,-18.7166996,144.3170013
AU,Carrapateena Airport,-31.30831,137.443396
AU,Carinda Airport,-30.45829964,147.7079926
AU,Corryong Airport,-36.18280029,147.8880005
AU,Christmas Creek Station Airport,-18.8728,125.9338
AU,Crookwell Airport,-34.5,149.4499969
AU,Cranbrook Airport,-34.28329849,117.5500031
AU,Carrieton Airport,-32.41669846,138.5169983
AU,Croydon Airport,-18.22500038,142.2579956
AU,Cassilis Rotherw Airport,-32.00220108,149.9609985
AU,Consuelo Airport,-24.63330078,148.4669952
AU,Curtin Springs Airport,-25.31669998,131.75
AU,Collinsville Airport,-20.59670067,147.8600006
AU,Cotten Creek Airport,-22.79999924,122.5830002
AU,Chatsworth Airport,-21.9666996,140.3000031
AU,Cockatoo Island Airport,-16.08329964,123.6169968
AU,Cootamundra Airport,-34.62390137,148.0279999
AU,Casterton Airport,-37.59999847,141.3999939
AU,Calton Hills Airport,-20.13330078,139.4170074
AU,Cape Otway Airport,-38.86000061,143.5149994
AU,Cudal Airport,-33.27830124,148.7630005
AU,Cuddapan Airport,-25.59000015,141.5079956
AU,Cue Airport,-27.44669914,117.9179993
AU,Cunderdin Airport,-31.62220001,117.2170029
AU,Cabramurra Airport,-35.92688751,148.3925476
AU,Cummins Airport,-34.20830154,135.6419983
AU,Cuthero Airport,-33.03329849,142.0169983
AU,Clare Valley Aerodrome,-33.710837,138.587367
AU,Calvin Grove Airport,-34.69670105,138.5780029
AU,Cervantes Airport,-30.48329926,115.0830002
AU,Coondewanna Airport,-22.9666996,118.8130035
AU,Cape Wessels Airport,-11,136.75
AU,Commonwealth Hill Airport,-29.96170044,134.1430054
AU,Cowarie Airport,-27.71170044,138.3280029
AU,Cowell Airport,-33.66669846,136.8919983
AU,Corowa Downs Airport,-26.4666996,143.3500061
AU,Chatsworth Airport,-37.83330154,142.7169952
AU,Cowra Airport,-33.84469986,148.6490021
AU,Cowes Airport,-38.50830078,145.2129974
AU,Canowindra Airport,-33.5428009,148.6629944
AU,Coolawanyah Airport,-21.7946,117.755
AU,Cooloola Village Airpark,-25.97500038,153
AU,Crystal Brook Airport,-17.38330078,144.4499969
AU,Dagworth Airport,-17.94169998,143.5879974
AU,Dajarra Airport,-21.70829964,139.5330048
AU,Dallas Airport,-34.56669998,146.1829987
AU,Darlington Airport,-42.57274087,148.0691814
AU,Dalby Airport,-27.15530014,151.2669983
AU,Dirranbandi Airport,-28.5916996,148.2169952
AU,Dunbar Airport,-16.04999924,142.3999939
AU,Derby Airport,-17.37000084,123.6610031
AU,Drumduff Airport,-16.0529995,143.0119934
AU,Delara Airfield,-13.66875,134.2911
AU,Delegate Airport,-37.06140137,148.9420013
AU,Denmark Airport,-34.94499969,117.3970032
AU,Derrinallum Airport,-37.93416667,143.2277778
AU,Devoncourt Airport,-21.2166996,140.2330017
AU,Dexfield Park,-31.42166667,152.7583333
AU,Dalgaranga Gold Mine Airport,-27.83027778,117.3163889
AU,Dullingari Airport,-28.13330078,140.8820038
AU,Doongan Airport,-15.386429,126.302235
AU,Dalgaranga Airport,-27.79144036,116.9933224
AU,Dalgety Downs Station Airport,-25.2833004,116.1999969
AU,De Grey Homestead Airport,-20.17499924,119.1689987
AU,Dhalinbuy Airport,-12.41329956,136.5370026
AU,Dimbulah Airport,-17.13330078,145.0829926
AU,Dixie Airport,-15.11749443,143.3160496
AU,Dunk Island Airport,-17.94169998,146.1399994
AU,Dulacca Airport,-26.63330078,149.7169952
AU,Delmore Downs Airport,-22.45859909,134.8840027
AU,Dalhousie Airport,-26.43499947,135.5169983
AU,Dulkaninna Airport,-29.01329994,138.4810028
AU,Dunolly Airport,-36.84999847,143.6999969
AU,Darlot Airport,-27.88330078,121.2669983
AU,Deniliquin Airport,-35.55939865,144.9459991
AU,Delta Downs Airport,-16.99169922,141.3170013
AU,Delissaville Airport,-12.55000019,130.6849976
AU,Daly Waters Airport,-16.26469507,133.383379
AU,Mount Dimer Airport,-30.40169907,119.8300018
AU,Diemal Find Airport,-29.66670036,119.2829971
AU,Doomadgee Airport,-17.9403,138.822006
AU,Daly River Airport,-13.7498064,130.6938782
AU,Delamere Station Airport,-15.61999989,131.6369934
AU,Doongmabulla Airport,-22.06669998,146.2330017
AU,Darnley Island Airport,-9.583330154,143.7669983
AU,Darnick Airport,-32.88330078,143.5829926
AU,Dunmore Manila Airport,-30.65810013,150.875
AU,Dynevor Downs Airport,-28.10000038,144.3500061
AU,Dochra Airfield,-32.650002,151.207993
AU,Donald Airport,-36.36029816,143.0079956
AU,Dowerin Airport,-31.18330002,117.0500031
AU,Donors Hill Airport,-18.7166996,140.5500031
AU,Donnington Airpark,-19.61170006,146.8399963
AU,Dorunda Airport,-16.5537,141.8238
AU,Davenport Downs Airport,-24.14999962,141.1080017
AU,Devonport Airport,-41.16970062,146.4299927
AU,Dneiper Airport,-22.61669922,135.1999969
AU,Depot Springs Airport,-27.88330078,120.0830002
AU,Depot Outcamp Airport,-31.57220078,125.1869965
AU,Deep Well Airport,-24.29999924,134.1329956
AU,Dongara Airport,-29.298128,114.927334
AU,Dairy Creek Homestead Airport,-25.2833004,115.8669968
AU,Drysdale River Airport,-15.7135704,126.3810968
AU,Duaringa Airstrip,-23.7372,149.6647
AU,Durham Downs Airport,-27.07500076,141.8999939
AU,Durrie Airport,-25.68499947,140.2279968
AU,De Rose Hill Airport,-26.43330002,133.2579956
AU,Drouin Airport,-38.208972,145.831097
AU,Duketon Airport,-27.95829964,122.3079987
AU,Dumbleyung Airport,-33.33330154,117.75
AU,Dunwich Airport,-27.51670074,153.4279938
AU,Dale River Airport,-32.28329849,116.5500031
AU,Docker River Airport,-24.86000061,129.0700073
AU,Delamere Range Facility Airport,-15.74670029,131.9199982
AU,Dalwallinu Airport,-30.20000076,116.6500015
AU,Derry Downs Airport,-22.08329964,135.3329926
AU,Dysart Airport,-22.62220001,148.3639984
AU,Euabalong Airport,-33.11669922,146.4499969
AU,Yea Airport,-37.21580124,146.4299927
AU,Echuca Airport,-36.15719986,144.7619934
AU,Eucla Airport,-31.70000076,128.8829956
AU,Etadunna Airport,-28.74080086,138.5890045
AU,Edenhope Airport,-37.01670074,141.2669983
AU,Edmund Station Airport,-23.75,116.0999985
AU,Eneabba Airport,-29.83250046,115.2460022
AU,Elderslie Airport,-32.59970093,151.3399963
AU,Engonnia Airport,-29.31669998,145.8329926
AU,Einasleigh Airport,-18.50329971,144.0939941
AU,Elcho Island Airport,-12.01939964,135.5709991
AU,Belele Airport,-26.36669922,118.0169983
AU,Elengerah Airport,-31.85000038,147.9830017
AU,Elkedra Airport,-21.17250061,135.4440002
AU,Elliott Airport,-17.52742958,133.529892
AU,Elmore Airport,-36.49017938,144.6471977
AU,Elliston Airport,-33.63830185,134.8999939
AU,Earlston Airport,-36.59628677,145.7218628
AU,Eildon Weir Airport,-37.20830154,145.8329926
AU,Eromanga Airport,-26.70000076,143.2669983
AU,Emu Junction Airport,-28.63330078,132.1829987
AU,Emerald Airport,-23.56749916,148.1790009
AU,Emu Park Authorised Landing Area,-23.255188,150.81439
AU,Epsilon Airport,-28.2833004,141.1999969
AU,Epenarra Airport,-20.43330002,135.2669983
AU,El Questro Airport,-16.00830078,127.9749985
AU,Errabiddy Homestead Airport,-25.5,117.1669998
AU,Earaheedy Airport,-25.60000038,121.5830002
AU,Erldunda Airport,-25.2057991,133.2539978
AU,Ernabella Airport,-26.26329994,132.1820068
AU,Erong Station Airport,-25.56669998,116.6669998
AU,Erudina Airport,-31.43449974,139.4250031
AU,Escott Airport,-17.72500038,139.4170074
AU,Elrose Airport,-20.9764,141.0066
AU,Esperance Airport,-33.684399,121.822998
AU,Euroa Aerodrome,-36.74470139,145.5130005
AU,Eudamulla Station Airport,-24.45000076,115.5999985
AU,Eulalia Airport,-31.0333004,148.1750031
AU,Eulo Airport,-28.16670036,145.0420074
AU,Eva Downs Airport,-18.00099945,134.8630066
AU,Evans Head Aerodrome,-29.09329987,153.4199982
AU,Everard Park Airport,-27.01670074,132.7169952
AU,Exmouth Airport,-22.0333004,114.0999985
AU,Evelyn Downs Airport,-28.20470047,134.4880066
AU,Forbes Airport,-33.363602,147.934998
AU,Fish Creek Airport,-38.71500015,146.0529938
AU,Fortescue River Airport,-21.29999924,116.1330032
AU,Fortescue - Dave Forrest Aerodrome,-22.290754,119.437143
AU,Federation Hsd Airport,-35.01169968,147.3739929
AU,Farrell Flat Airport,-33.83330154,138.7669983
AU,Finley Airport,-35.66669846,145.5500031
AU,Flinders Island Airport,-40.09170151,147.9929962
AU,Flora Valley Airport,-18.2833004,128.4170074
AU,Flinders Island Airport,-33.730989,134.501
AU,Finke Airport,-25.59469986,134.5829926
AU,Fortnum Airport,-25.33329964,118.3669968
AU,Frome Downs Airport,-31.2166996,139.75
AU,Fregon Airport,-26.77499962,132.0169983
AU,Friendly Beaches Airport,-42,148.2590027
AU,Frankland Airport,-34.42300034,117.026001
AU,Forrest Airport,-30.83810043,128.1150055
AU,Oombulgurri Airport,-15.1647,127.8401
AU,Forsayth Airport,-18.58480072,143.5690002
AU,Fiskville Airport,-37.67811432,144.2207909
AU,Forster (Wallis Is) Airport,-32.20420074,152.4790039
AU,Forrestania Airport,-32.58000183,119.7030029
AU,Mount Fitton Talc Airport,-29.90920067,139.473999
AU,Fitzroy Crossing Airport,-18.18190002,125.5589981
AU,Fairview Airport,-32.78900146,148.7200012
AU,Faraway Bay Airport,-13.98079967,127.1809998
AU,Garden Island (Military) Airport,-32.24169922,115.6829987
AU,Greenbah Airport,-30.12582779,149.4345703
AU,Gamboola Airport,-16.54999924,143.6670074
AU,Gan Gan Airport,-13.06669998,135.9499969
AU,Gnaraloo Station Airport,-23.79154968,113.5289383
AU,Gawler Airport,-34.599934,138.719055
AU,Gayndah Airport,-25.61440086,151.6190033
AU,South Goulburn Is Airport,-11.64999962,133.3820038
AU,Gabo Island Airport,-37.56669998,149.8999939
AU,Gunbower Airport,-35.96670151,144.3829956
AU,Gloucester Airport,-32.04999924,151.9830017
AU,Goodooga Airport,-29.07329941,147.3760071
AU,Gunnedah Airport,-30.96109962,150.2510071
AU,Goondiwindi Airport,-28.52140045,150.3200073
AU,Gordon Downs Airport,-18.67810059,128.5919952
AU,Gundaroo Airport,-35.0505,149.2559
AU,The Garden Airport,-23.2866993,134.4400024
AU,Gregory Downs Airport,-18.625,139.2330017
AU,Galdeville Airport,-20.25,142.4499969
AU,Granite Downs Airport,-26.948299,133.606995
AU,Geraldton Airport,-28.796101,114.707001
AU,Grafton Airport,-29.75939941,153.0299988
AU,Golden Grove Airport,-28.764898,116.972656
AU,Goolgowi Airport,-34,145.7169952
AU,Glen Garland Airport,-14.86670017,143.2830048
AU,Goonoo Goonoo Airport,-31.31669998,150.9170074
AU,Gregory Springs Airport,-19.7166996,144.3829956
AU,Glen Harding Airport - CLOSED,-18.248608,145.125958
AU,Ginbata Airport,-22.5812,120.03553
AU,Gibb River Airport,-16.42329979,126.4449997
AU,Gidgee Airport,-27.27000046,119.4049988
AU,Gifford Creek Station Airport,-24.04999924,116.2170029
AU,RAAF Gingin,-31.46529961,115.862999
AU,Gilgandra Airport,-31.70330048,148.6380005
AU,Giralia Airport,-22.68330002,114.3669968
AU,Great Keppel Is Airport,-23.18330002,150.9420013
AU,Gladstone Airport,-23.869699,151.223007
AU,Goulburn Airport,-34.81029892,149.7259979
AU,Glendambo Airport,-30.9666996,135.7749939
AU,Glengyle Airport,-24.80830002,139.6000061
AU,Geelong Airport,-38.22499847,144.3329926
AU,Glen Innes Airport,-29.67499924,151.6889954
AU,Glencoe Airport,-31.61669922,148.1999969
AU,Glenormiston Airport,-22.88829994,138.8249969
AU,Gallipolli Airport,-19.14181,137.87412
AU,Giles Airport,-25.04369926,128.2960052
AU,Glenayle Homestead Airport,-25.2833004,122.0500031
AU,Goomadeer Airport,-12.10000038,133.6670074
AU,Grampians Airport,-37.04999924,142.2830048
AU,Greenmount ALA,-27.763556,151.925495
AU,Granada Airport,-20.10000038,140.3670044
AU,Grenfell Airport,-34,148.1329956
AU,Greenvale Airport,-18.9966,145.0136
AU,Gnowangerup Airport,-33.98329926,118.0329971
AU,Goomalling Airport,-31.36669922,116.8830032
AU,Mount Gordon Airport,-19.77265,139.40425
AU,Gabo Is aAd sSte Airport,-37.56999969,149.9179993
AU,Giles Point Airport,-23.26670074,119.1669998
AU,Gunpowder Airport,-19.70000076,139.3670044
AU,Garden Point Airport,-11.40250015,130.4219971
AU,Grovedale Airport,-38.21670151,144.3329926
AU,Great Lakes Vi Airport,-37.84220123,148
AU,Glen Ruth Airport,-18.08329964,145.3999939
AU,Gascoyne Junction Airport,-25.0546,115.2026
AU,Groote Eylandt Airport,-13.97500038,136.4600067
AU,Griffith Airport,-34.25080109,146.0670013
AU,Georgetown Airport,-18.30500031,143.5299988
AU,Georgetown (Tas) Airport,-41.08000183,146.8399963
AU,Greenthorpe Airport,-33.98329926,148.4170074
AU,Gullewa Airport,-28.63330078,116.2829971
AU,Gunnawarra Airport,-17.95000076,145.1670074
AU,Glendevie Airport,-43.22999954,147.0119934
AU,Goolwa Airport,-35.480085,138.744267
AU,Galway Downs Airport,-25.18330002,142.6670074
AU,Gympie Airport,-26.28280067,152.7019958
AU,Haasts Bluff Airport,-23.45499992,131.8529968
AU,Hideaway Bay Airport,-20.11669922,148.4329987
AU,Harden Airport,-34.55749893,148.3880005
AU,Haig Airport,-31,126.0830002
AU,Wilpena Pound Airport,-31.85590744,138.4680786
AU,Hay Airport,-34.53139877,144.8300018
AU,Hervey Bay Airport,-25.31889915,152.8800049
AU,Holbrook Airport,-35.68330002,147.3170013
AU,Humbert River Airport,-16.4896698,130.6302795
AU,Henbury Airport,-24.584,133.236
AU,Heathcote Emergency Airport,-31.24029922,151.4320068
AU,Hodgson Downs Airport,-15.22169971,134.076004
AU,Headingly Airport,-21.33329964,138.2830048
AU,Heck Field Airport,-27.7675,153.339444
AU,Hells Gate Airport,-17.4666996,138.3670044
AU,Hedlow Airport,-23.22310066,150.6049957
AU,Hugh River Airport,-24.41670036,133.6999969
AU,Hughes Siding Airport,-30.7166996,129.5149994
AU,Highbury Airport,-16.42440033,143.1459961
AU,Horn Island Airport,-10.58640003,142.2899933
AU,Hillside Airport,-21.7244,119.3922
AU,Huckitta Airport,-22.94330025,135.4470062
AU,Halls Creek Airport,-18.23390007,127.6699982
AU,Hillgrove Airport,-19.64249992,145.7969971
AU,Hillman Farm Airport,-33.26390076,116.8150024
AU,Hillston Airport,-33.49330139,145.522995
AU,Hermannsburg Airport,-23.93000031,132.8049927
AU,Hamilton Airport,-37.64889908,142.0650024
AU,Hamilton Airport,-26.71999931,135.072998
AU,Howard Island Airport,-12.09500027,135.3619995
AU,Hooker Creek Airport,-18.33670044,130.6380005
AU,Mount Hotham Airport,-37.04750061,147.3339996
AU,Hodgeson River Airfield,-15.54594,134.0956
AU,Hollins Bay Airport,-22.26670074,150.0330048
AU,Hopetoun Airport,-33.90000153,120.1579971
AU,Hopetoun Airport,-35.71530151,142.3600006
AU,Hope Vale Airport,-15.2923,145.1035
AU,Hungerford Airport,-28.98329926,144.4499969
AU,Haddon Rig Airport,-31.46879959,147.8950043
AU,Horseshoe Bend Airport,-25.2166996,134.2669983
AU,Horseshoe Lights Airport,-25.35000038,118.6169968
AU,Horsham Airport,-36.66970062,142.1730042
AU,Hiltaba Airport,-32.14250183,135.098999
AU,Heathlands Airport,-11.73690033,142.5769959
AU,Herberton Airport,-17.43330002,145.3999939
AU,Hunter Island Airport,-40.522671,144.741499
AU,Harts Range Airport,-22.98500061,134.9179993
AU,Hughenden Airport,-20.81500053,144.2250061
AU,Harvest Home Airport,-20.68330002,146.6499939
AU,Hyden Airport,-32.43330002,118.8669968
AU,Indulkana Airport,-26.9666996,133.3249969
AU,Idracowra Airport,-25.06329918,133.7330017
AU,Innisfail Airport,-17.55940056,146.0119934
AU,Iffley Airport,-18.89999962,141.2169952
AU,Ingham Airport,-18.66060066,146.1519928
AU,Ingomar Airport,-29.63330078,134.7929993
AU,Baikal Airport,-22.76329994,136.1629944
AU,Inkerman Airport,-16.27499962,141.4420013
AU,Milawa Vineyard Airport,-36.45619687,146.433063
AU,Inglewood Airport,-28.4188,151.0955
AU,Imanpa Airport,-25.13330078,132.5700073
AU,Kimba Airport,-33.093182,136.466315
AU,Impadna Airport,-25.14999962,133.5829926
AU,Innamincka Township Airport,-27.74169922,140.7449951
AU,Ingelara Airport,-24.99702703,148.3332825
AU,Injune Airport,-25.851,148.5497
AU,Innamincka Airport,-27.70000076,140.7330017
AU,Inverell North Airport,-29.76670074,151.1670074
AU,Inverleigh Airport,-18.01670074,140.5670013
AU,Inverway Airport,-17.84110069,129.6430054
AU,Isis Downs Airport,-24.2166996,144.6170044
AU,Isisford Airport,-24.25830078,144.4250031
AU,Innesvale Airport,-15.38329983,131.2669983
AU,Mitta Mitta Airport,-36.51387874,147.3590183
AU,Inverell Airport,-29.88829994,151.1439972
AU,Ivanhoe Airport,-32.88330078,144.3099976
AU,Jabiru Airport,-12.6583004,132.8930054
AU,Jackson Airport,-27.63829994,142.4080048
AU,Jameson Airport,-25.85000038,127.6829987
AU,Jervis Bay Airport,-35.14720154,150.6970062
AU,Jericho Airport,-42.36669922,147.3170013
AU,Jacobs Well Airport,-27.76169968,153.3350067
AU,Jundah Airport,-24.8416996,143.0579987
AU,Jemalong Airport,-32.40999985,147.6699982
AU,Jerilderie Airport,-35.36999893,145.7250061
AU,Jeedamya Airport,-29.405654,121.274729
AU,Jerramungup Airport,-33.90000153,118.9000015
AU,Jiggalong Mission Airport,-23.36669922,120.7829971
AU,Jindabyne Airport,-36.42670059,148.602005
AU,Julia Creek Airport,-20.66830063,141.7230072
AU,Jurien Bay Airport,-30.301629,115.055914
AU,Jinka Airport,-22.95000076,135.7330017
AU,Jonroy Airport,-16.5,144.3999939
AU,Jericho Airport,-23.58329964,146.1670074
AU,Hubert Wilkins Airstrip,-33.19208451,138.6155319
AU,Tjukurla Airport,-24.37071037,128.7393341
AU,Jundee Airport,-26.42169952,120.5770035
AU,Jervois Mine Airport,-22.63330078,136.2669983
AU,Jervois Airport,-22.91329956,136.1199951
AU,Jowalbinna Airport,-15.73330021,144.2669983
AU,Kalannie Airport,-30.36669922,117.1330032
AU,Kajabbi Airport,-20.0333004,140.0330048
AU,Kalumburu Airport,-14.28829956,126.6320038
AU,Kanandah Airport,-30.89500046,124.8619995
AU,Kapunda Airport,-34.25,138.9170074
AU,Katoomba Airport,-33.66830063,150.322998
AU,Kayrunnera Airport,-30.68330002,142.5330048
AU,Koolyanobbing Range Airport,-30.84059906,119.5289993
AU,Kambalda Airport,-31.1907,121.5978
AU,Kooralbyn Airport,-28.09000015,152.8450012
AU,Kalbarri Airport,-27.692813,114.259169
AU,Streaky Bay Airport,-32.83580017,134.2929993
AU,Kings Canyon Airport,-24.26000023,131.4900055
AU,Killiecrankie Airport,-39.84880066,147.8580017
AU,Kings Creek Airport,-24.42329979,131.8350067
AU,Kadina Airport,-33.96963,137.659748
AU,Kondoolka Airport,-32.02389908,134.8609924
AU,Kidman Springs Airport,-16.11669922,130.9530029
AU,Kondinin Airport,-32.46670151,118.2829971
AU,Kellerberrin Airport,-31.66670036,117.7330017
AU,Kelvin Station Airport,-30.65500069,151.6380005
AU,Kenmore Park Airport,-26.33329964,132.4669952
AU,Lake Keepit Airport,-30.89110342,150.5261493
AU,Kerang Airport,-35.75139999,143.9389954
AU,Kingfisher Camp Airport,-17.86879921,138.2949982
AU,Kingoonya Airport,-30.90169907,135.3049927
AU,Khancoban Airport,-36.21591997,148.1137428
AU,Katherine Gorge Airport,-14.38860035,132.3930054
AU,Kiana Station Airport,-17.24169922,136.1750031
AU,Kidston Airport,-18.87000084,144.1730042
AU,Kingston Airport,-36.82329941,139.875
AU,King Island Airport,-39.87749863,143.878006
AU,Kildurk Airport,-16.43169975,129.6150055
AU,Kirkimbie Station Airport,-17.7791996,129.2100067
AU,Kaiuroo Airport,-23.088925,149.431925
AU,Kalkgurung Airport,-17.43190002,130.8079987
AU,Kokatha Airport,-31.29170036,135.2420044
AU,Koolatah Airport,-15.88860035,142.4389954
AU,Koolburra Airport,-15.31890011,143.9550018
AU,Killarney Airport,-16.25,131.746994
AU,Kalinga Airport,-15.19999981,143.8500061
AU,Kallala Airport,-21.75,138.8829956
AU,Killarney Airport,-15.39999962,143.5
AU,Kalamurina Airport,-27.7166996,138.2619934
AU,Karumba Airport,-17.45669937,140.8300018
AU,Kamileroi Airport,-19.375,140.0570068
AU,Kempsey Airport,-31.07439995,152.7700043
AU,Kencherang Airport,-13.84500027,141.5919952
AU,Katanning Airport,-33.71670151,117.6330032
AU,Koonmarra Airport,-26.2833004,117.7829971
AU,Kununoppin Airport,-31.13330078,117.9000015
AU,Kintore Airport,-23.26499939,129.3869934
AU,Kaniva Airport,-36.340918,141.267964
AU,Koongarra Airport,-36,142.2169952
AU,Kojonup Airport,-33.76670074,117.1330032
AU,Kookynie Airport,-29.34328,121.493168
AU,Kolendo Airport,-32.41579819,136.2980042
AU,Kowanyama Airport,-15.48560047,141.7510071
AU,Kalpowar Airport,-14.89,144.22
AU,Kendall River Airport,-13.75,142.1829987
AU,Kingaroy Airport,-26.5807991,151.8410034
AU,Kingscote Airport,-35.71390152,137.5209961
AU,Kotta Airport,-36.17979813,144.5249939
AU,Keith Airport,-36.115135,140.252237
AU,Kyneton Airport,-37.22626209,144.4472981
AU,Kubin Airport,-10.22500038,142.2180023
AU,Kurundi Airport,-20.51,134.6706
AU,Kurweeton Airport,-38.04999924,143.1499939
AU,Kurray Airport,-28.21999931,148.5780029
AU,Kangaroo Well Airport,-31.78499985,135.6380005
AU,Kyabram Airport,-36.33248237,144.9720669
AU,Kynuna Airport,-21.60000038,141.9170074
AU,Lagoon Bay Airport,-42.88499832,147.9530029
AU,Lawn Hill Airport,-18.56830025,138.6349945
AU,Lakeside Airpark,-20.68169975,148.628006
AU,Lambina Airport,-26.91329956,134.0579987
AU,Langawirra Airport,-31.45000076,142.1329956
AU,Lameroo Airport,-35.36669922,140.5500031
AU,Lawlers Airport,-28.08329964,120.5
AU,Lombadina Airport,-16.51670074,122.9169998
AU,Mount Liebig Airport,-23.24329948,131.2599945
AU,Lake Bolac Airport,-37.68330002,142.8829956
AU,Lake Cargelligo Airport,-33.27830124,146.3699951
AU,Locksley Field,-36.81499863,145.3480072
AU,Lady Barron (Flinders Is) Airport,-40.20000076,148.25
AU,Landor Station Airport,-25.10000038,116.9000015
AU,Leeman Airport,-29.969953,114.983131
AU,Leigh Creek Airport,-30.59830093,138.4259949
AU,Lethbridge Airpark,-37.921233,144.103058
AU,Leeton Airport,-34.499788,146.446646
AU,Leongatha Airport,-38.49309921,145.8600006
AU,Leonora Airport,-28.87809944,121.3150024
AU,Lakes Entrance Airport,-37.87919998,147.9869995
AU,Lake Evella Airport,-12.49890041,135.8059998
AU,Lakefield Airport,-14.9207,144.203
AU,Mulga Downs Airport,-22.10720062,118.4710007
AU,La Grange Bay Airport,-18.6833,121.807999
AU,Lake Grace Airport,-33.13330078,118.4000015
AU,Longdown Airport,-41.69530106,147.1430054
AU,Laglan Airport,-22.5,146.6670074
AU,Loongana Airport,-30.95000076,127.0329971
AU,Legune Airport,-15.2166996,129.447998
AU,Lord Howe Island Airport,-31.538204,159.07546
AU,Long Hill Airport,-41.33330154,146.5
AU,Lockhart River Airport,-12.7869,143.304993
AU,Lyndhurst Airport,-19.19580078,144.3710022
AU,Lilydale Airport,-37.6917,145.367004
AU,Limbunya Airport,-17.23559952,129.8820038
AU,Lindeman Island Airport,-20.45359993,149.0399933
AU,Lismore Airport,-28.83029938,153.2599945
AU,Lucky Downs Airport,-18.91670036,145
AU,Lakes Entrance Airport,-37.85269928,147.9579926
AU,Lake King Airport,-33.07920074,119.7659988
AU,Lake Nash Airport,-20.9807,137.9178
AU,Mobella Airport,-29.79829979,133.3450012
AU,Lilla Creek Airport,-25.56669998,134
AU,Langlo Downs Airport,-25.5333004,145.7669983
AU,Ballera Airport,-27.405633,141.809458
AU,Lake Leagur Airport,-35.98329926,143.8000031
AU,Lily Vale Airport,-14.48330021,143.6670074
AU,Lambrook Airport,-31.10000038,149.9329987
AU,Lake Macquarie Airport,-33.065975,151.646283
AU,Mungo Lodge Airport,-33.74582445,143.0013084
AU,Lakeland Airport,-15.83329964,144.8500061
AU,Landor Races Airport,-24.95000076,116.9670029
AU,Lochinvar Airport,-20.75830078,121.0169983
AU,Longwood Airport,-36.80780029,145.4570007
AU,Louth Airport,-30.54170036,145.1000061
AU,Lock Airport,-33.5442009,135.6929932
AU,Lorraine Airport,-18.99329948,139.9069977
AU,Louisa Downs Airport,-18.7166996,126.7170029
AU,Lotus Vale Airport,-17.04829979,141.3760071
AU,Loxton Airport,-34.47499847,140.6629944
AU,Longwarry Airport,-38.10829926,145.7779999
AU,Laura Airport,-15.55000019,144.4499969
AU,Lightning Ridge Airport,-29.45669937,147.9839935
AU,Longreach Airport,-23.43420029,144.2799988
AU,Lorna Glen Homestead Airport,-26.2166996,121.5500031
AU,Lorraine Station Airport,-22.5333004,143.5169983
AU,New Laura Airport,-15.18330002,144.3670044
AU,Lismore Airport,-37.93330002,143.3500061
AU,Lansdowne Airport,-25.04999924,146.2669983
AU,Leinster Airport,-27.84329987,120.7030029
AU,Mount Lindsay Airport,-27.0182991,129.8849945
AU,Laverton Airport,-28.61359978,122.4240036
AU,Latrobe Valley Airport,-38.207199,146.470001
AU,Lucy Creek Airport,-22.4666996,136.2669983
AU,Lucindale Airport,-36.97169876,140.352005
AU,Mooleulooloo Airport,-31.63330078,140.5330048
AU,Leeuwin Estate Airport,-34.020973,115.064471
AU,Lovely Banks Airport,-38.03329849,144.3329926
AU,Lake Everard Airport,-31.73329926,135.0269928
AU,Laverak (Military) Airport,-19.32169914,146.802002
AU,Lake Varley Airport,-32.70830154,119.5130005
AU,Lake Way Airport,-26.94499969,120.4700012
AU,Lyndley Airport,-26.83329964,151.2330017
AU,Lyndoch Airport,-34.61828,138.911362
AU,Lyndon Airport,-23.63330078,115.2330017
AU,Lizard Island Airport,-14.673273,145.454571
AU,Mabuiag Island Airport,-9.949999809,142.1829987
AU,Macumba Airport,-27.26169968,135.6380005
AU,Madura Airport,-31.88330078,127.0329971
AU,Murray Island Airport,-9.915105,144.054644
AU,Manangatang Airport,-35.04999924,142.8670044
AU,Manguri Airport,-28.97999954,134.371994
AU,Mabel Creek Station Airport,-28.94169998,134.3329926
AU,Mount Augusta Airport,-24.29999924,116.9169998
AU,Avalon Airport,-38.039398,144.468994
AU,Albury Airport,-36.06779861,146.9579926
AU,Mareeba Airport,-17.06920052,145.4190063
AU,Murray Bridge Airport,-35.066202,139.227326
AU,Marble Bar Airport,-21.16329956,119.8330002
AU,Mount Beauty Airport,-36.73157568,147.1689034
AU,Maryborough Airport,-37.03310013,143.7089996
AU,Mundrabilla Airport,-31.86720085,127.8539963
AU,Mount Ebenezer Airport,-25.16670036,132.6329956
AU,Mount Clere Homestead Airport,-25.10000038,117.5830002
AU,Mckinley Airport,-21.2833004,141.2879944
AU,Mount Coolon Airport,-21.39170074,147.3249969
AU,Mallacoota Airport,-37.59830093,149.7200012
AU,Manners Creek Airport,-22.10000038,137.9830017
AU,Macrossan Airport,-20.01670074,146.4830017
AU,Millicent Airport,-37.58359909,140.3659973
AU,Mount Mcclure Airport,-27.46999931,120.9169998
AU,Mundubbera Airport,-25.5916996,151.3170013
AU,Mundabullangana Airport,-20.51670074,118.0670013
AU,Mudgee Airport,-32.5625,149.6109924
AU,Mandora Airport,-19.73830032,120.8379974
AU,Mount Riddock Airport,-23.0333004,134.6829987
AU,Merredin Airport,-31.50499916,118.322998
AU,Minderoo Station Airport,-22,115.0500031
AU,Macdonald Downs Airport,-22.44400024,135.1990051
AU,Mundrabilla Motel Airport,-31.82670021,128.2299957
AU,Mount Davies Airport,-26.16670036,129.1329956
AU,Maitland Downs Airport,-16.22330093,144.7030029
AU,Mount Bundey Airport,-12.89000034,131.9080048
AU,Mardi Station Airport,-21.20000076,115.9830017
AU,Mount Eba Airport,-30.17609978,135.6710052
AU,Menindee Airport,-32.36669922,142.4049988
AU,Mereenie Airport,-23.97669983,131.5619965
AU,Meekatharra Airport,-26.61170006,118.5479965
AU,Melton Airport,-37.61669922,144.5670013
AU,Melbourne Essendon Airport,-37.7281,144.901993
AU,Merton Airport,-36.967704,145.707616
AU,Merapah Airport,-13.7166996,142.4170074
AU,Merimbula Airport,-36.90859985,149.901001
AU,RAAF Base East Sale,-38.09889984,147.1490021
AU,Merluna Airport,-13.0649,142.4536
AU,Mingenew Airport,-29.26670074,115.4499969
AU,Mullaley Airport,-31.10000038,149.9170074
AU,Mansfield Airport,-37.06669998,146.1170044
AU,Milingimbi Airport,-12.09440041,134.8939972
AU,Maningrida Airport,-12.05609989,134.2339935
AU,Mulgathing Airport,-30.22920036,133.9859924
AU,Mungindi Airport,-28.9666996,149.0579987
AU,Mount Gunson Airport,-31.4597,137.1744433
AU,Murgoo Airport,-27.36669922,116.4169998
AU,Margaret River (Station) Airport,-18.62170029,126.8830032
AU,Mount Morgans Airport,-28.78720093,122.0339966
AU,Margaret River Airport,-33.93059921,115.0999985
AU,Musgrave Airport,-14.7757,143.5047
AU,Hobart International Airport,-42.83610153,147.5099945
AU,Mount Holland Airport,-32.11830139,119.7679977
AU,Mount House Airport,-17.05500031,125.7099991
AU,Mount Hart Station Airport,-16.81999969,124.9079971
AU,McArthur River Mine Airport,-16.44249916,136.0839996
AU,Mount Howitt Airport,-26.51169968,142.2830048
AU,Mildura Airport,-34.22919846,142.0859985
AU,Mintabie Airport,-27.32830048,133.3049927
AU,Mittagong Airport,-34.46670151,150.5
AU,Minjilang Airport,-11.1583004,132.5469971
AU,Milgun Airport,-25.08329964,118.3330002
AU,Minlaton Airport,-34.75,137.5330048
AU,Mitchell Plateau Airport,-14.79139996,125.8239975
AU,Miralwyn Airport,-30.149,147.327
AU,Millrose Homestead Airport,-26.39999962,120.9499969
AU,Mitchell Airport,-26.48329926,147.9369965
AU,Mount Ive Airport,-32.44419861,136.0690002
AU,Middalya Homestead Airport,-23.89999962,114.7669983
AU,Mount James Airport,-24.61669922,116.9329987
AU,Manjimup Airport,-34.26530075,116.1399994
AU,Mararanka Homestead Airport,-14.93169975,133.125
AU,Mukinbudin Airport,-30.93330002,118.25
AU,Emkaytee (Unlic) Airport,-12.609664,131.054381
AU,Malina Airport,-20.88330078,118.0329971
AU,Mole Creek Airport,-41.53329849,146.3329926
AU,Maitland Airport,-34.39279938,137.7169952
AU,Minnamoolka Airport,-18.18330002,145.1670074
AU,Millungera Airport,-19.85829926,141.5619965
AU,Monolon Airport,-30.20000076,143.2330017
AU,Muloorina Airport,-29.24670029,137.9100037
AU,Miles Airport,-26.80830002,150.1750031
AU,Launceston Airport,-41.54529953,147.2140045
AU,Milurie Homestead Airport,-27.58329964,121.7829971
AU,Melbourne Moorabbin Airport,-37.97579956,145.102005
AU,Murrin Murrin Airport,-28.705299,121.89099
AU,Melbourne International Airport,-37.673302,144.843002
AU,Millmerran Airport,-27.860097,151.271996
AU,Mount Margaret Airport,-26.93330002,143.3170013
AU,Middlemount Airport,-22.80249977,148.7050018
AU,Mount Allan Airport,-22.27499962,132.2169952
AU,Mount Barry Airport,-28.23329926,135
AU,Maitland Airport,-32.701265,151.492912
AU,Mount Keith Airport,-27.28639984,120.5550003
AU,Manfred Airport,-26.45000076,116.5500031
AU,Mangalore Airport,-36.88830185,145.1840057
AU,Monkira Airport,-24.81669998,140.5330048
AU,Mount Denison Airport,-22.14170074,132.0700073
AU,Maneroo Airport,-23.36669922,143.8829956
AU,Murnpeowie Airport,-29.5916996,139.052002
AU,Mount Swan Airport,-22.624696,135.034512
AU,Mornington Station Airport,-17.39360046,126.2289963
AU,Granny Smith Airport,-28.763333,122.438333
AU,Minura Airport,-28.88330078,121.8000031
AU,Morney Airport,-25.35829926,141.4329987
AU,Moonaree Airport,-31.96610069,135.875
AU,Mount Magnet Airport,-28.11610031,117.8420029
AU,Moulamein Airport,-35.05838561,144.0213203
AU,Mooraberree Airport,-25.25,140.9830017
AU,Moree Airport,-29.49889946,149.8450012
AU,Moreton Airport,-12.44419956,142.6380005
AU,Moura Airport,-24.61170006,149.9949951
AU,Minnipa Airport,-32.84329987,135.1450043
AU,"RAAF Williams, Point Cook Base",-37.932201,144.753006
AU,Mount Cooper Airport,-20.51670074,146.7669983
AU,Mount Elephant Airport,-37.90000153,143.1670074
AU,Milton Park Airport,-23.36669922,133
AU,Marqua Airport,-22.80579948,137.2510071
AU,Maralinga Airport,-30.16329956,131.625
AU,Moranbah Airport,-22.05780029,148.0769959
AU,Marree Airport,-29.66329956,138.0650024
AU,Melrose Airport,-27.93330002,121.3000031
AU,Mount Garnet Airport,-17.70000076,145.1499939
AU,Morawa Airport,-29.20170021,116.0220032
AU,Moruya Airport,-35.89780045,150.1439972
AU,Mount Sanford Station Airport,-16.97830009,130.5549927
AU,Mount Skinner Airport,-22.18330002,134.1170044
AU,Mount Sandon Airport,-31.38999939,151.4100037
AU,Mount Surprise Airport,-18.12630081,144.2850037
AU,Murchison Shire Airport,-26.91670036,115.9830017
AU,Millstream Station Field,-21.623761,117.081299
AU,Mittebah Airport,-18.8093,137.0815
AU,Muttaburra Airport,-22.58329964,144.5330048
AU,Mount Clarence Airport,-28.83329964,134.3580017
AU,Mount Gambier Airport,-37.74560165,140.7850037
AU,Mornington Island Airport,-16.66250038,139.1779938
AU,Monto Airport,-24.88579941,151.1000061
AU,Mount Hope Airport,-34.13669968,135.3379974
AU,Martins Well Airport,-31.47360039,139.1109924
AU,Mount Dare Airport,-26.06170082,135.246994
AU,Mount Elizabeth Airport,-16.43330002,126.0999985
AU,Monduran Airport,-24.875,151.9170074
AU,Muccan Station Airport,-20.65889931,120.0670013
AU,Mount Borradale Airport,-12.09829998,132.9069977
AU,Mungeranie Airport,-28.00919914,138.6569977
AU,Munjina Airport,-22.36610031,118.6809998
AU,Mulka Airport,-28.3477993,138.6499939
AU,Murray Field,-32.50830078,115.8420029
AU,Mulga Park Airport,-25.86000061,131.6499939
AU,Murwillumbah Airport,-28.33169937,153.4129944
AU,Mileura Airport,-26.36669922,117.3330002
AU,Mount Cavenagh Airport,-25.9666996,133.1999969
AU,Marvel Loch Airport,-31.4666996,119.5329971
AU,Mangrove Mountain Airport,-33.285122,151.212738
AU,Morven Airport,-26.39999962,147.1000061
AU,Mount Vernon Station Airport,-24.23329926,118.2330017
AU,Mount Valley Airport,-14.08329964,133.8170013
AU,Mullewa Airport,-28.47500038,115.5169983
AU,Mount Wedge Airport,-22.73719978,132.151001
AU,Mount William Airport,-37.29549582,142.6033974
AU,Mahanewo Airport,-31.71829987,136.4329987
AU,Moolawatana Airport,-29.9069,139.765
AU,Marion Downs Airport,-23.363702,139.649663
AU,Maryborough Airport,-25.5133,152.714996
AU,Mallapunyah Springs Airport,-16.9666996,135.7830048
AU,Marymia Airport,-25.09329987,119.7549973
AU,Myroodan Station Airport,-18.11669922,124.2669983
AU,Merty Merty Airport,-28.58329964,140.3170013
AU,Maryvale Airport,-24.65999985,134.0319977
AU,Murray Downs Airport,-21.04829979,134.6829987
AU,Mary Valley Airport,-15.05000019,143.75
AU,Menzies Airport,-29.685808,121.027794
AU,Nabarlek Airport,-12.30830002,133.3130035
AU,Nanango Airport,-26.69000053,151.9830017
AU,Nappa Merrie Airport,-27.55830002,141.1329956
AU,Narrandera Airport,-34.70220184,146.5119934
